{
  "type": "FeatureCollection",
  "features": [
    {"type":"Feature","properties":{"utm_y":"4675446.6270","nom_comarca":"Pallars Jussà","longitud":"0.931464895","latitud":"42.21254512","utm_x":"329256.4381","nom":"Salàs de Pallars","codi":"251902","codi_comarca":"25"},"geometry":{"type":"Point","coordinates":[0.931464895,42.21254512]}},{"type":"Feature","properties":{"utm_y":"4681260.8200","nom_comarca":"Alt Empordà","longitud":"2.979693865","latitud":"42.28356246","utm_x":"498325.7811","nom":"Vilabertran","codi":"172142","codi_comarca":"02"},"geometry":{"type":"Point","coordinates":[2.979693865,42.28356246]}},{"type":"Feature","properties":{"utm_y":"4602555.5700","nom_comarca":"Segrià","longitud":"0.703394598","latitud":"41.55174258","utm_x":"308465.3458","nom":"Artesa de Lleida","codi":"250334","codi_comarca":"33"},"geometry":{"type":"Point","coordinates":[0.703394598,41.55174258]}},{"type":"Feature","properties":{"utm_y":"4621288.2730","nom_comarca":"Segarra","longitud":"1.276541600","latitud":"41.73048601","utm_x":"356664.0697","nom":"Tarroja de Segarra","codi":"252192","codi_comarca":"32"},"geometry":{"type":"Point","coordinates":[1.2765416,41.73048601]}},{"type":"Feature","properties":{"utm_y":"4674962.2420","nom_comarca":"Alt Empordà","longitud":"3.043026927","latitud":"42.22682952","utm_x":"503550.7047","nom":"Riumors","codi":"171518","codi_comarca":"02"},"geometry":{"type":"Point","coordinates":[3.043026927,42.22682952]}},{"type":"Feature","properties":{"utm_y":"4657766.5830","nom_comarca":"Baix Empordà","longitud":"3.010759556","latitud":"42.07196555","utm_x":"500890.0761","nom":"Jafre","codi":"170852","codi_comarca":"10"},"geometry":{"type":"Point","coordinates":[3.010759556,42.07196555]}},{"type":"Feature","properties":{"utm_y":"4569917.1600","nom_comarca":"Alt Camp","longitud":"1.341136631","latitud":"41.26873802","utm_x":"361052.6869","nom":"Bràfim","codi":"430347","codi_comarca":"01"},"geometry":{"type":"Point","coordinates":[1.341136631,41.26873802]}},{"type":"Feature","properties":{"utm_y":"4598424.6670","nom_comarca":"Vallès Occidental","longitud":"2.183444726","latitud":"41.53457583","utm_x":"431884.0134","nom":"Santa Perpètua de Mogoda","codi":"082606","codi_comarca":"40"},"geometry":{"type":"Point","coordinates":[2.183444726,41.53457583]}},{"type":"Feature","properties":{"utm_y":"4625165.2800","nom_comarca":"Noguera","longitud":"0.905573979","latitud":"41.75923890","utm_x":"325887.8635","nom":"Bellcaire d'Urgell","codi":"250479","codi_comarca":"23"},"geometry":{"type":"Point","coordinates":[0.905573979,41.7592389]}},{"type":"Feature","properties":{"utm_y":"4622780.8790","nom_comarca":"Bages","longitud":"1.903759781","latitud":"41.75162689","utm_x":"408859.1623","nom":"Navarcles","codi":"081402","codi_comarca":"07"},"geometry":{"type":"Point","coordinates":[1.903759781,41.75162689]}},{"type":"Feature","properties":{"utm_y":"4676279.4430","nom_comarca":"Berguedà","longitud":"1.878810946","latitud":"42.23322071","utm_x":"407485.0359","nom":"Guardiola de Berguedà","codi":"080996","codi_comarca":"14"},"geometry":{"type":"Point","coordinates":[1.878810946,42.23322071]}},{"type":"Feature","properties":{"utm_y":"4675692.5020","nom_comarca":"Garrotxa","longitud":"2.629675788","latitud":"42.23281673","utm_x":"469442.6574","nom":"Tortellà","codi":"172001","codi_comarca":"19"},"geometry":{"type":"Point","coordinates":[2.629675788,42.23281673]}},{"type":"Feature","properties":{"utm_y":"4563773.2370","nom_comarca":"Tarragonès","longitud":"1.205916871","latitud":"41.21136969","utm_x":"349594.6226","nom":"Vilallonga del Camp","codi":"431665","codi_comarca":"36"},"geometry":{"type":"Point","coordinates":[1.205916871,41.21136969]}},{"type":"Feature","properties":{"utm_y":"4611049.9120","nom_comarca":"Pla d'Urgell","longitud":"0.933110148","latitud":"41.63260825","utm_x":"327839.5674","nom":"Golmés","codi":"250997","codi_comarca":"27"},"geometry":{"type":"Point","coordinates":[0.933110148,41.63260825]}},{"type":"Feature","properties":{"utm_y":"4555872.3250","nom_comarca":"Baix Camp","longitud":"1.050870857","latitud":"41.13768340","utm_x":"336412.5420","nom":"Riudoms","codi":"431299","codi_comarca":"08"},"geometry":{"type":"Point","coordinates":[1.050870857,41.1376834]}},{"type":"Feature","properties":{"utm_y":"4648646.2170","nom_comarca":"Baix Empordà","longitud":"3.017294311","latitud":"41.98982108","utm_x":"501432.5019","nom":"Corçà","codi":"170577","codi_comarca":"10"},"geometry":{"type":"Point","coordinates":[3.017294311,41.98982108]}},{"type":"Feature","properties":{"utm_y":"4644553.3510","nom_comarca":"Gironès","longitud":"2.794042045","latitud":"41.95277439","utm_x":"482930.4420","nom":"Vilablareix","codi":"172155","codi_comarca":"20"},"geometry":{"type":"Point","coordinates":[2.794042045,41.95277439]}},{"type":"Feature","properties":{"utm_y":"4683913.1900","nom_comarca":"Alt Empordà","longitud":"3.148120570","latitud":"42.30735638","utm_x":"512207.7862","nom":"Palau-saverdera","codi":"171208","codi_comarca":"02"},"geometry":{"type":"Point","coordinates":[3.14812057,42.30735638]}},{"type":"Feature","properties":{"utm_y":"4639541.1230","nom_comarca":"Baix Empordà","longitud":"3.144717363","latitud":"41.90772390","utm_x":"512002.4490","nom":"Mont-ras","codi":"171100","codi_comarca":"10"},"geometry":{"type":"Point","coordinates":[3.144717363,41.9077239]}},{"type":"Feature","properties":{"utm_y":"4593146.6060","nom_comarca":"Garrigues","longitud":"0.689520695","latitud":"41.46672232","utm_x":"307055.7792","nom":"Cogul, el","codi":"250766","codi_comarca":"18"},"geometry":{"type":"Point","coordinates":[0.689520695,41.46672232]}},{"type":"Feature","properties":{"utm_y":"4585031.2900","nom_comarca":"Conca de Barberà","longitud":"1.051107112","latitud":"41.40032600","utm_x":"337086.8416","nom":"Vimbodí i Poblet","codi":"431763","codi_comarca":"16"},"geometry":{"type":"Point","coordinates":[1.051107112,41.400326]}},{"type":"Feature","properties":{"utm_y":"4669446.4560","nom_comarca":"Pallars Jussà","longitud":"1.091706045","latitud":"42.16128710","utm_x":"342356.4132","nom":"Abella de la Conca","codi":"250019","codi_comarca":"25"},"geometry":{"type":"Point","coordinates":[1.091706045,42.1612871]}},{"type":"Feature","properties":{"utm_y":"4668644.5790","nom_comarca":"Pla de l'Estany","longitud":"2.745542768","latitud":"42.16965629","utm_x":"478982.5201","nom":"Serinyà","codi":"171903","codi_comarca":"28"},"geometry":{"type":"Point","coordinates":[2.745542768,42.16965629]}},{"type":"Feature","properties":{"utm_y":"4601219.9930","nom_comarca":"Anoia","longitud":"1.675296009","latitud":"41.55502231","utm_x":"389528.9688","nom":"Pobla de Claramunt, la","codi":"081653","codi_comarca":"06"},"geometry":{"type":"Point","coordinates":[1.675296009,41.55502231]}},{"type":"Feature","properties":{"utm_y":"4690745.3060","nom_comarca":"Alt Empordà","longitud":"2.980043309","latitud":"42.36898126","utm_x":"498356.8168","nom":"Sant Climent Sescebes","codi":"171582","codi_comarca":"02"},"geometry":{"type":"Point","coordinates":[2.980043309,42.36898126]}},{"type":"Feature","properties":{"utm_y":"4585879.6010","nom_comarca":"Conca de Barberà","longitud":"1.227449026","latitud":"41.41081942","utm_x":"351852.2060","nom":"Barberà de la Conca","codi":"430213","codi_comarca":"16"},"geometry":{"type":"Point","coordinates":[1.227449026,41.41081942]}},{"type":"Feature","properties":{"utm_y":"4674628.3560","nom_comarca":"Alt Empordà","longitud":"2.860538506","latitud":"42.22374573","utm_x":"488490.6788","nom":"Navata","codi":"171117","codi_comarca":"02"},"geometry":{"type":"Point","coordinates":[2.860538506,42.22374573]}},{"type":"Feature","properties":{"utm_y":"4627282.3880","nom_comarca":"Segarra","longitud":"1.288303003","latitud":"41.78464838","utm_x":"357761.9545","nom":"Guissona","codi":"251109","codi_comarca":"32"},"geometry":{"type":"Point","coordinates":[1.288303003,41.78464838]}},{"type":"Feature","properties":{"utm_y":"4650017.6810","nom_comarca":"Osona","longitud":"2.283578064","latitud":"41.99993910","utm_x":"440667.4181","nom":"Manlleu","codi":"081120","codi_comarca":"24"},"geometry":{"type":"Point","coordinates":[2.283578064,41.9999391]}},{"type":"Feature","properties":{"utm_y":"4682864.8180","nom_comarca":"Ripollès","longitud":"2.141072148","latitud":"42.29479352","utm_x":"429194.6493","nom":"Campelles","codi":"170372","codi_comarca":"31"},"geometry":{"type":"Point","coordinates":[2.141072148,42.29479352]}},{"type":"Feature","properties":{"utm_y":"4572746.5930","nom_comarca":"Ribera d'Ebre","longitud":"0.665882597","latitud":"41.28250815","utm_x":"304530.6208","nom":"Palma d'Ebre, la","codi":"430995","codi_comarca":"30"},"geometry":{"type":"Point","coordinates":[0.665882597,41.28250815]}},{"type":"Feature","properties":{"utm_y":"4651192.6380","nom_comarca":"Lluçanès","longitud":"2.028590923","latitud":"42.00864672","utm_x":"419560.6937","nom":"Prats de Lluçanès","codi":"081712","codi_comarca":"43"},"geometry":{"type":"Point","coordinates":[2.028590923,42.00864672]}},{"type":"Feature","properties":{"utm_y":"4626364.9250","nom_comarca":"Bages","longitud":"1.839177662","latitud":"41.78327337","utm_x":"403537.1809","nom":"Santpedor","codi":"081923","codi_comarca":"07"},"geometry":{"type":"Point","coordinates":[1.839177662,41.78327337]}},{"type":"Feature","properties":{"utm_y":"4645966.8560","nom_comarca":"Gironès","longitud":"2.743365182","latitud":"41.96540335","utm_x":"478734.5985","nom":"Bescanó","codi":"170209","codi_comarca":"20"},"geometry":{"type":"Point","coordinates":[2.743365182,41.96540335]}},{"type":"Feature","properties":{"utm_y":"4624821.2480","nom_comarca":"Segarra","longitud":"1.324595827","latitud":"41.76301707","utm_x":"360731.1031","nom":"Sant Guim de la Plana","codi":"251977","codi_comarca":"32"},"geometry":{"type":"Point","coordinates":[1.324595827,41.76301707]}},{"type":"Feature","properties":{"utm_y":"4620501.8700","nom_comarca":"Segarra","longitud":"1.358975924","latitud":"41.72461029","utm_x":"363507.7187","nom":"Sant Ramon","codi":"251945","codi_comarca":"32"},"geometry":{"type":"Point","coordinates":[1.358975924,41.72461029]}},{"type":"Feature","properties":{"utm_y":"4560546.3030","nom_comarca":"Baix Camp","longitud":"1.096907219","latitud":"41.18055339","utm_x":"340380.5838","nom":"Castellvell del Camp","codi":"430424","codi_comarca":"08"},"geometry":{"type":"Point","coordinates":[1.096907219,41.18055339]}},{"type":"Feature","properties":{"utm_y":"4635568.7670","nom_comarca":"Moianès","longitud":"2.112454961","latitud":"41.86860715","utm_x":"426344.2862","nom":"Estany, l'","codi":"080790","codi_comarca":"42"},"geometry":{"type":"Point","coordinates":[2.112454961,41.86860715]}},{"type":"Feature","properties":{"utm_y":"4676694.7790","nom_comarca":"Alt Empordà","longitud":"3.040426933","latitud":"42.24243421","utm_x":"503335.3240","nom":"Fortià","codi":"170741","codi_comarca":"02"},"geometry":{"type":"Point","coordinates":[3.040426933,42.24243421]}},{"type":"Feature","properties":{"utm_y":"4634453.4180","nom_comarca":"Selva","longitud":"2.662775243","latitud":"41.86149583","utm_x":"472011.3490","nom":"Santa Coloma de Farners","codi":"171805","codi_comarca":"34"},"geometry":{"type":"Point","coordinates":[2.662775243,41.86149583]}},{"type":"Feature","properties":{"utm_y":"4693545.3940","nom_comarca":"Alt Empordà","longitud":"2.846385617","latitud":"42.39409786","utm_x":"487356.8210","nom":"Agullana","codi":"170010","codi_comarca":"02"},"geometry":{"type":"Point","coordinates":[2.846385617,42.39409786]}},{"type":"Feature","properties":{"utm_y":"4636520.1290","nom_comarca":"Baix Empordà","longitud":"3.126951014","latitud":"41.88053534","utm_x":"510533.4242","nom":"Vall-llobrega","codi":"172095","codi_comarca":"10"},"geometry":{"type":"Point","coordinates":[3.126951014,41.88053534]}},{"type":"Feature","properties":{"utm_y":"4582215.1930","nom_comarca":"Conca de Barberà","longitud":"1.161386523","latitud":"41.37677696","utm_x":"346250.3161","nom":"Montblanc","codi":"430862","codi_comarca":"16"},"geometry":{"type":"Point","coordinates":[1.161386523,41.37677696]}},{"type":"Feature","properties":{"utm_y":"4570996.0680","nom_comarca":"Baix Penedès","longitud":"1.487744296","latitud":"41.28047573","utm_x":"373355.7143","nom":"Bisbal del Penedès, la","codi":"430287","codi_comarca":"12"},"geometry":{"type":"Point","coordinates":[1.487744296,41.28047573]}},{"type":"Feature","properties":{"utm_y":"4550450.3510","nom_comarca":"Terra Alta","longitud":"0.478153650","latitud":"41.07772916","utm_x":"288148.7528","nom":"Corbera d'Ebre","codi":"430483","codi_comarca":"37"},"geometry":{"type":"Point","coordinates":[0.47815365,41.07772916]}},{"type":"Feature","properties":{"utm_y":"4630775.1460","nom_comarca":"Gironès","longitud":"2.891817464","latitud":"41.82881009","utm_x":"491016.6056","nom":"Llagostera","codi":"170890","codi_comarca":"20"},"geometry":{"type":"Point","coordinates":[2.891817464,41.82881009]}},{"type":"Feature","properties":{"utm_y":"4693020.2610","nom_comarca":"Alt Urgell","longitud":"1.456737734","latitud":"42.37908342","utm_x":"372950.6394","nom":"Valls de Valira, les","codi":"252398","codi_comarca":"04"},"geometry":{"type":"Point","coordinates":[1.456737734,42.37908342]}},{"type":"Feature","properties":{"utm_y":"4585138.7540","nom_comarca":"Baix Llobregat","longitud":"2.015962183","latitud":"41.41359396","utm_x":"417759.8903","nom":"Molins de Rei","codi":"081234","codi_comarca":"11"},"geometry":{"type":"Point","coordinates":[2.015962183,41.41359396]}},{"type":"Feature","properties":{"utm_y":"4589223.7880","nom_comarca":"Baix Llobregat","longitud":"1.971403604","latitud":"41.44999966","utm_x":"414083.9157","nom":"Sant Andreu de la Barca","codi":"081960","codi_comarca":"11"},"geometry":{"type":"Point","coordinates":[1.971403604,41.44999966]}},{"type":"Feature","properties":{"utm_y":"4579744.5060","nom_comarca":"Alt Penedès","longitud":"1.669009697","latitud":"41.36151537","utm_x":"388674.2443","nom":"Pacs del Penedès","codi":"081542","codi_comarca":"03"},"geometry":{"type":"Point","coordinates":[1.669009697,41.36151537]}},{"type":"Feature","properties":{"utm_y":"4609771.2160","nom_comarca":"Segarra","longitud":"1.341908077","latitud":"41.62771708","utm_x":"361880.9904","nom":"Ribera d'Ondara","codi":"259059","codi_comarca":"32"},"geometry":{"type":"Point","coordinates":[1.341908077,41.62771708]}},{"type":"Feature","properties":{"utm_y":"4581087.7020","nom_comarca":"Baix Llobregat","longitud":"2.087992375","latitud":"41.37769777","utm_x":"423737.8689","nom":"Esplugues de Llobregat","codi":"080771","codi_comarca":"11"},"geometry":{"type":"Point","coordinates":[2.087992375,41.37769777]}},{"type":"Feature","properties":{"utm_y":"4644110.8360","nom_comarca":"Bages","longitud":"2.022486759","latitud":"41.94481219","utm_x":"418974.3397","nom":"Sant Feliu Sasserra","codi":"082129","codi_comarca":"07"},"geometry":{"type":"Point","coordinates":[2.022486759,41.94481219]}},{"type":"Feature","properties":{"utm_y":"4596299.0160","nom_comarca":"Garrigues","longitud":"0.765325275","latitud":"41.49661329","utm_x":"313472.2811","nom":"Castelldans","codi":"250674","codi_comarca":"18"},"geometry":{"type":"Point","coordinates":[0.765325275,41.49661329]}},{"type":"Feature","properties":{"utm_y":"4601596.5890","nom_comarca":"Segrià","longitud":"0.733536105","latitud":"41.54370384","utm_x":"310955.8496","nom":"Puigverd de Lleida","codi":"251826","codi_comarca":"33"},"geometry":{"type":"Point","coordinates":[0.733536105,41.54370384]}},{"type":"Feature","properties":{"utm_y":"4708146.6920","nom_comarca":"Alta Ribagorça","longitud":"0.800461177","latitud":"42.50458673","utm_x":"319281.6712","nom":"Vall de Boí, la","codi":"250432","codi_comarca":"05"},"geometry":{"type":"Point","coordinates":[0.800461177,42.50458673]}},{"type":"Feature","properties":{"utm_y":"4609580.1800","nom_comarca":"Segrià","longitud":"0.738550669","latitud":"41.61570667","utm_x":"311583.6606","nom":"Alamús, els","codi":"250045","codi_comarca":"33"},"geometry":{"type":"Point","coordinates":[0.738550669,41.61570667]}},{"type":"Feature","properties":{"utm_y":"4609721.9510","nom_comarca":"Segrià","longitud":"0.626842574","latitud":"41.61473059","utm_x":"302272.9144","nom":"Lleida","codi":"251207","codi_comarca":"33"},"geometry":{"type":"Point","coordinates":[0.626842574,41.61473059]}},{"type":"Feature","properties":{"utm_y":"4706565.4350","nom_comarca":"Pallars Sobirà","longitud":"1.208870332","latitud":"42.49746019","utm_x":"352821.7111","nom":"Llavorsí","codi":"251266","codi_comarca":"26"},"geometry":{"type":"Point","coordinates":[1.208870332,42.49746019]}},{"type":"Feature","properties":{"utm_y":"4567646.4060","nom_comarca":"Baix Camp","longitud":"0.948646721","latitud":"41.24195886","utm_x":"328105.6188","nom":"Arbolí","codi":"430154","codi_comarca":"08"},"geometry":{"type":"Point","coordinates":[0.948646721,41.24195886]}},{"type":"Feature","properties":{"utm_y":"4684221.2400","nom_comarca":"Alt Empordà","longitud":"3.068686953","latitud":"42.31020582","utm_x":"505660.7786","nom":"Pedret i Marzà","codi":"171292","codi_comarca":"02"},"geometry":{"type":"Point","coordinates":[3.068686953,42.31020582]}},{"type":"Feature","properties":{"utm_y":"4656090.5300","nom_comarca":"Garrotxa","longitud":"2.536909351","latitud":"42.05593631","utm_x":"461681.4967","nom":"Planes d'Hostoles, les","codi":"171334","codi_comarca":"19"},"geometry":{"type":"Point","coordinates":[2.536909351,42.05593631]}},{"type":"Feature","properties":{"utm_y":"4639242.6500","nom_comarca":"Selva","longitud":"2.684319914","latitud":"41.90469290","utm_x":"473817.1362","nom":"Brunyola i Sant Martí Sapresa","codi":"170280","codi_comarca":"34"},"geometry":{"type":"Point","coordinates":[2.684319914,41.9046929]}},{"type":"Feature","properties":{"utm_y":"4596398.2210","nom_comarca":"Garrigues","longitud":"0.959906850","latitud":"41.50112440","utm_x":"329726.6661","nom":"Omellons, els","codi":"251538","codi_comarca":"18"},"geometry":{"type":"Point","coordinates":[0.95990685,41.5011244]}},{"type":"Feature","properties":{"utm_y":"4599596.6760","nom_comarca":"Segrià","longitud":"0.592549540","latitud":"41.52282505","utm_x":"299130.8162","nom":"Sunyer","codi":"252120","codi_comarca":"33"},"geometry":{"type":"Point","coordinates":[0.59254954,41.52282505]}},{"type":"Feature","properties":{"utm_y":"4663791.1670","nom_comarca":"Pla de l'Estany","longitud":"2.684407451","latitud":"42.12579254","utm_x":"473914.9017","nom":"Sant Miquel de Campmajor","codi":"171740","codi_comarca":"28"},"geometry":{"type":"Point","coordinates":[2.684407451,42.12579254]}},{"type":"Feature","properties":{"utm_y":"4552533.2910","nom_comarca":"Ribera d'Ebre","longitud":"0.650840627","latitud":"41.10014239","utm_x":"302723.8220","nom":"Móra la Nova","codi":"430944","codi_comarca":"30"},"geometry":{"type":"Point","coordinates":[0.650840627,41.10014239]}},{"type":"Feature","properties":{"utm_y":"4684220.3840","nom_comarca":"Alt Empordà","longitud":"2.839005502","latitud":"42.31010567","utm_x":"486731.7488","nom":"Terrades","codi":"171962","codi_comarca":"02"},"geometry":{"type":"Point","coordinates":[2.839005502,42.31010567]}},{"type":"Feature","properties":{"utm_y":"4653636.3370","nom_comarca":"Gironès","longitud":"2.839385619","latitud":"42.03465426","utm_x":"486705.5168","nom":"Sant Julià de Ramis","codi":"171693","codi_comarca":"20"},"geometry":{"type":"Point","coordinates":[2.839385619,42.03465426]}},{"type":"Feature","properties":{"utm_y":"4611464.6580","nom_comarca":"Vallès Oriental","longitud":"2.229205451","latitud":"41.65234558","utm_x":"435818.1181","nom":"Santa Eulàlia de Ronçana","codi":"082482","codi_comarca":"41"},"geometry":{"type":"Point","coordinates":[2.229205451,41.65234558]}},{"type":"Feature","properties":{"utm_y":"4735296.7740","nom_comarca":"Aran","longitud":"0.726519814","latitud":"42.74763184","utm_x":"313931.8688","nom":"Vilamòs","codi":"252477","codi_comarca":"39"},"geometry":{"type":"Point","coordinates":[0.726519814,42.74763184]}},{"type":"Feature","properties":{"utm_y":"4644582.9900","nom_comarca":"Berguedà","longitud":"1.778623024","latitud":"41.94672926","utm_x":"398763.3121","nom":"Viver i Serrateix","codi":"083089","codi_comarca":"14"},"geometry":{"type":"Point","coordinates":[1.778623024,41.94672926]}},{"type":"Feature","properties":{"utm_y":"4606509.6130","nom_comarca":"Vallès Oriental","longitud":"2.286822072","latitud":"41.60808662","utm_x":"440575.0878","nom":"Granollers","codi":"080961","codi_comarca":"41"},"geometry":{"type":"Point","coordinates":[2.286822072,41.60808662]}},{"type":"Feature","properties":{"utm_y":"4683965.8760","nom_comarca":"Alt Empordà","longitud":"3.007989950","latitud":"42.30792626","utm_x":"500658.5089","nom":"Peralada","codi":"171328","codi_comarca":"02"},"geometry":{"type":"Point","coordinates":[3.00798995,42.30792626]}},{"type":"Feature","properties":{"utm_y":"4681818.1070","nom_comarca":"Alt Empordà","longitud":"3.275849152","latitud":"42.28825155","utm_x":"522741.7868","nom":"Cadaqués","codi":"170329","codi_comarca":"02"},"geometry":{"type":"Point","coordinates":[3.275849152,42.28825155]}},{"type":"Feature","properties":{"utm_y":"4552732.0420","nom_comarca":"Tarragonès","longitud":"1.144805793","latitud":"41.11094923","utm_x":"344233.5157","nom":"Vila-seca","codi":"431711","codi_comarca":"36"},"geometry":{"type":"Point","coordinates":[1.144805793,41.11094923]}},{"type":"Feature","properties":{"utm_y":"4617015.5360","nom_comarca":"Vallès Oriental","longitud":"2.435177772","latitud":"41.70353973","utm_x":"453006.1868","nom":"Sant Esteve de Palautordera","codi":"082074","codi_comarca":"41"},"geometry":{"type":"Point","coordinates":[2.435177772,41.70353973]}},{"type":"Feature","properties":{"utm_y":"4554767.4430","nom_comarca":"Priorat","longitud":"0.864236158","latitud":"41.12442120","utm_x":"320711.5095","nom":"Torre de Fontaubella, la","codi":"431515","codi_comarca":"29"},"geometry":{"type":"Point","coordinates":[0.864236158,41.1244212]}},{"type":"Feature","properties":{"utm_y":"4745346.7800","nom_comarca":"Aran","longitud":"0.738490358","latitud":"42.83836792","utm_x":"315181.9469","nom":"Canejan","codi":"250637","codi_comarca":"39"},"geometry":{"type":"Point","coordinates":[0.738490358,42.83836792]}},{"type":"Feature","properties":{"utm_y":"4582269.2960","nom_comarca":"Segrià","longitud":"0.504199067","latitud":"41.36488195","utm_x":"291252.6693","nom":"Maials","codi":"251333","codi_comarca":"33"},"geometry":{"type":"Point","coordinates":[0.504199067,41.36488195]}},{"type":"Feature","properties":{"utm_y":"4600934.8160","nom_comarca":"Vallès Occidental","longitud":"1.954375361","latitud":"41.55533046","utm_x":"412803.0027","nom":"Viladecavalls","codi":"083008","codi_comarca":"40"},"geometry":{"type":"Point","coordinates":[1.954375361,41.55533046]}},{"type":"Feature","properties":{"utm_y":"4691152.6800","nom_comarca":"Alt Empordà","longitud":"2.920941486","latitud":"42.37262459","utm_x":"493490.8990","nom":"Capmany","codi":"170427","codi_comarca":"02"},"geometry":{"type":"Point","coordinates":[2.920941486,42.37262459]}},{"type":"Feature","properties":{"utm_y":"4691845.9900","nom_comarca":"Cerdanya","longitud":"1.887513138","latitud":"42.37349819","utm_x":"408406.6855","nom":"Alp","codi":"170062","codi_comarca":"15"},"geometry":{"type":"Point","coordinates":[1.887513138,42.37349819]}},{"type":"Feature","properties":{"utm_y":"4632110.6560","nom_comarca":"Osona","longitud":"2.280295766","latitud":"41.83863507","utm_x":"440245.2819","nom":"Seva","codi":"082690","codi_comarca":"24"},"geometry":{"type":"Point","coordinates":[2.280295766,41.83863507]}},{"type":"Feature","properties":{"utm_y":"4602766.6000","nom_comarca":"Urgell","longitud":"1.053125669","latitud":"41.56009925","utm_x":"337654.9883","nom":"Sant Martí de Riucorb","codi":"259025","codi_comarca":"38"},"geometry":{"type":"Point","coordinates":[1.053125669,41.56009925]}},{"type":"Feature","properties":{"utm_y":"4601156.3800","nom_comarca":"Segrià","longitud":"0.512600714","latitud":"41.53516991","utm_x":"292499.1392","nom":"Torres de Segre","codi":"252326","codi_comarca":"33"},"geometry":{"type":"Point","coordinates":[0.512600714,41.53516991]}},{"type":"Feature","properties":{"utm_y":"4510099.3950","nom_comarca":"Montsià","longitud":"0.531709388","latitud":"40.71544069","utm_x":"291513.0301","nom":"Masdenverge","codi":"430786","codi_comarca":"22"},"geometry":{"type":"Point","coordinates":[0.531709388,40.71544069]}},{"type":"Feature","properties":{"utm_y":"4569526.8470","nom_comarca":"Alt Camp","longitud":"1.170205538","latitud":"41.26263186","utm_x":"346720.5084","nom":"Alcover","codi":"430056","codi_comarca":"01"},"geometry":{"type":"Point","coordinates":[1.170205538,41.26263186]}},{"type":"Feature","properties":{"utm_y":"4656487.2110","nom_comarca":"Baix Empordà","longitud":"3.046671526","latitud":"42.06043381","utm_x":"503861.5654","nom":"Verges","codi":"172116","codi_comarca":"10"},"geometry":{"type":"Point","coordinates":[3.046671526,42.06043381]}},{"type":"Feature","properties":{"utm_y":"4565273.2330","nom_comarca":"Priorat","longitud":"0.732035727","latitud":"41.21651919","utm_x":"309879.6494","nom":"Figuera, la","codi":"430580","codi_comarca":"29"},"geometry":{"type":"Point","coordinates":[0.732035727,41.21651919]}},{"type":"Feature","properties":{"utm_y":"4650885.1630","nom_comarca":"Baix Empordà","longitud":"3.108405998","latitud":"42.00993664","utm_x":"508976.5306","nom":"Fontanilles","codi":"170708","codi_comarca":"10"},"geometry":{"type":"Point","coordinates":[3.108405998,42.00993664]}},{"type":"Feature","properties":{"utm_y":"4671261.2920","nom_comarca":"Alt Empordà","longitud":"2.954141859","latitud":"42.19349642","utm_x":"496213.6653","nom":"Garrigàs","codi":"170754","codi_comarca":"02"},"geometry":{"type":"Point","coordinates":[2.954141859,42.19349642]}},{"type":"Feature","properties":{"utm_y":"4684714.3310","nom_comarca":"Alt Empordà","longitud":"2.925538693","latitud":"42.31464308","utm_x":"493863.7638","nom":"Pont de Molins","codi":"171352","codi_comarca":"02"},"geometry":{"type":"Point","coordinates":[2.925538693,42.31464308]}},{"type":"Feature","properties":{"utm_y":"4608046.5050","nom_comarca":"Pla d'Urgell","longitud":"0.880202090","latitud":"41.60459409","utm_x":"323355.9178","nom":"Miralcamp","codi":"251351","codi_comarca":"27"},"geometry":{"type":"Point","coordinates":[0.88020209,41.60459409]}},{"type":"Feature","properties":{"utm_y":"4623150.0870","nom_comarca":"Segrià","longitud":"0.436732426","latitud":"41.73158197","utm_x":"286818.2641","nom":"Almacelles","codi":"250194","codi_comarca":"33"},"geometry":{"type":"Point","coordinates":[0.436732426,41.73158197]}},{"type":"Feature","properties":{"utm_y":"4513273.6730","nom_comarca":"Baix Ebre","longitud":"0.620293809","latitud":"40.74589422","utm_x":"299087.7533","nom":"Aldea, l'","codi":"439044","codi_comarca":"09"},"geometry":{"type":"Point","coordinates":[0.620293809,40.74589422]}},{"type":"Feature","properties":{"utm_y":"4647027.4080","nom_comarca":"Gironès","longitud":"2.792056075","latitud":"41.97505395","utm_x":"482771.8501","nom":"Salt","codi":"171557","codi_comarca":"20"},"geometry":{"type":"Point","coordinates":[2.792056075,41.97505395]}},{"type":"Feature","properties":{"utm_y":"4635444.4940","nom_comarca":"Noguera","longitud":"0.957133340","latitud":"41.85274554","utm_x":"330421.1362","nom":"Cubells","codi":"250791","codi_comarca":"23"},"geometry":{"type":"Point","coordinates":[0.95713334,41.85274554]}},{"type":"Feature","properties":{"utm_y":"4604125.6400","nom_comarca":"Vallès Oriental","longitud":"2.239084658","latitud":"41.58630762","utm_x":"436576.0635","nom":"Lliçà de Vall","codi":"081081","codi_comarca":"41"},"geometry":{"type":"Point","coordinates":[2.239084658,41.58630762]}},{"type":"Feature","properties":{"utm_y":"4645045.4500","nom_comarca":"Selva","longitud":"2.637779014","latitud":"41.95681994","utm_x":"469981.4259","nom":"Anglès","codi":"170084","codi_comarca":"34"},"geometry":{"type":"Point","coordinates":[2.637779014,41.95681994]}},{"type":"Feature","properties":{"utm_y":"4621508.0870","nom_comarca":"Anoia","longitud":"1.572465286","latitud":"41.73652419","utm_x":"381287.1096","nom":"Sant Pere Sallavinera","codi":"081897","codi_comarca":"06"},"geometry":{"type":"Point","coordinates":[1.572465286,41.73652419]}},{"type":"Feature","properties":{"utm_y":"4605146.6750","nom_comarca":"Segrià","longitud":"0.605376149","latitud":"41.57307862","utm_x":"300355.8601","nom":"Albatàrrec","codi":"250077","codi_comarca":"33"},"geometry":{"type":"Point","coordinates":[0.605376149,41.57307862]}},{"type":"Feature","properties":{"utm_y":"4670512.5470","nom_comarca":"Alt Empordà","longitud":"2.916807482","latitud":"42.18673195","utm_x":"493130.3732","nom":"Pontós","codi":"171365","codi_comarca":"02"},"geometry":{"type":"Point","coordinates":[2.916807482,42.18673195]}},{"type":"Feature","properties":{"utm_y":"4598529.7920","nom_comarca":"Anoia","longitud":"1.685814119","latitud":"41.53091212","utm_x":"390365.3995","nom":"Capellades","codi":"080446","codi_comarca":"06"},"geometry":{"type":"Point","coordinates":[1.685814119,41.53091212]}},{"type":"Feature","properties":{"utm_y":"4568602.8200","nom_comarca":"Garraf","longitud":"1.772114573","latitud":"41.26230332","utm_x":"397142.3954","nom":"Sant Pere de Ribes","codi":"082310","codi_comarca":"17"},"geometry":{"type":"Point","coordinates":[1.772114573,41.26230332]}},{"type":"Feature","properties":{"utm_y":"4565534.8550","nom_comarca":"Garraf","longitud":"1.811838248","latitud":"41.23508519","utm_x":"400428.7148","nom":"Sitges","codi":"082704","codi_comarca":"17"},"geometry":{"type":"Point","coordinates":[1.811838248,41.23508519]}},{"type":"Feature","properties":{"utm_y":"4742276.6970","nom_comarca":"Aran","longitud":"0.709878949","latitud":"42.81015343","utm_x":"312758.4569","nom":"Les","codi":"251214","codi_comarca":"39"},"geometry":{"type":"Point","coordinates":[0.709878949,42.81015343]}},{"type":"Feature","properties":{"utm_y":"4656520.7180","nom_comarca":"Osona","longitud":"2.239282559","latitud":"42.05822395","utm_x":"437056.4618","nom":"Orís","codi":"081509","codi_comarca":"24"},"geometry":{"type":"Point","coordinates":[2.239282559,42.05822395]}},{"type":"Feature","properties":{"utm_y":"4618556.0620","nom_comarca":"Segrià","longitud":"0.634522237","latitud":"41.69445163","utm_x":"303155.8413","nom":"Benavent de Segrià","codi":"250539","codi_comarca":"33"},"geometry":{"type":"Point","coordinates":[0.634522237,41.69445163]}},{"type":"Feature","properties":{"utm_y":"4595284.5620","nom_comarca":"Maresme","longitud":"2.342461150","latitud":"41.50731101","utm_x":"445126.0097","nom":"Premià de Dalt","codi":"082303","codi_comarca":"21"},"geometry":{"type":"Point","coordinates":[2.34246115,41.50731101]}},{"type":"Feature","properties":{"utm_y":"4641351.1450","nom_comarca":"Solsonès","longitud":"1.524576147","latitud":"41.91463777","utm_x":"377644.2545","nom":"Riner","codi":"251863","codi_comarca":"35"},"geometry":{"type":"Point","coordinates":[1.524576147,41.91463777]}},{"type":"Feature","properties":{"utm_y":"4582870.6590","nom_comarca":"Alt Penedès","longitud":"1.568940183","latitud":"41.38847247","utm_x":"380353.5035","nom":"Torrelles de Foix","codi":"082883","codi_comarca":"03"},"geometry":{"type":"Point","coordinates":[1.568940183,41.38847247]}},{"type":"Feature","properties":{"utm_y":"4641356.3460","nom_comarca":"Noguera","longitud":"1.252463404","latitud":"41.91086491","utm_x":"355068.9146","nom":"Vilanova de l'Aguda","codi":"252496","codi_comarca":"23"},"geometry":{"type":"Point","coordinates":[1.252463404,41.91086491]}},{"type":"Feature","properties":{"utm_y":"4685402.2400","nom_comarca":"Alt Empordà","longitud":"2.790097926","latitud":"42.32067057","utm_x":"482703.9561","nom":"Sant Llorenç de la Muga","codi":"171714","codi_comarca":"02"},"geometry":{"type":"Point","coordinates":[2.790097926,42.32067057]}},{"type":"Feature","properties":{"utm_y":"4575295.8010","nom_comarca":"Alt Penedès","longitud":"1.663058723","latitud":"41.32137517","utm_x":"388107.7862","nom":"Santa Margarida i els Monjos","codi":"082515","codi_comarca":"03"},"geometry":{"type":"Point","coordinates":[1.663058723,41.32137517]}},{"type":"Feature","properties":{"utm_y":"4672546.5810","nom_comarca":"Pallars Jussà","longitud":"0.899943075","latitud":"42.18585502","utm_x":"326581.4122","nom":"Talarn","codi":"252154","codi_comarca":"25"},"geometry":{"type":"Point","coordinates":[0.899943075,42.18585502]}},{"type":"Feature","properties":{"utm_y":"4686547.3760","nom_comarca":"Alt Empordà","longitud":"2.857547428","latitud":"42.33108746","utm_x":"488263.7691","nom":"Boadella i les Escaules","codi":"170293","codi_comarca":"02"},"geometry":{"type":"Point","coordinates":[2.857547428,42.33108746]}},{"type":"Feature","properties":{"utm_y":"4562634.5090","nom_comarca":"Priorat","longitud":"0.777456951","latitud":"41.19363821","utm_x":"313622.5581","nom":"Gratallops","codi":"430691","codi_comarca":"29"},"geometry":{"type":"Point","coordinates":[0.777456951,41.19363821]}},{"type":"Feature","properties":{"utm_y":"4577756.3420","nom_comarca":"Conca de Barberà","longitud":"1.177353406","latitud":"41.33686977","utm_x":"347492.4068","nom":"Vilaverd","codi":"431726","codi_comarca":"16"},"geometry":{"type":"Point","coordinates":[1.177353406,41.33686977]}},{"type":"Feature","properties":{"utm_y":"4598745.9290","nom_comarca":"Anoia","longitud":"1.770752125","latitud":"41.53379831","utm_x":"397455.9620","nom":"Hostalets de Pierola, els","codi":"081629","codi_comarca":"06"},"geometry":{"type":"Point","coordinates":[1.770752125,41.53379831]}},{"type":"Feature","properties":{"utm_y":"4681651.8940","nom_comarca":"Berguedà","longitud":"2.017208352","latitud":"42.28287514","utm_x":"418968.6244","nom":"Castellar de n'Hug","codi":"080522","codi_comarca":"14"},"geometry":{"type":"Point","coordinates":[2.017208352,42.28287514]}},{"type":"Feature","properties":{"utm_y":"4596016.2300","nom_comarca":"Conca de Barberà","longitud":"1.342395363","latitud":"41.50383442","utm_x":"361657.4980","nom":"Piles, les","codi":"431055","codi_comarca":"16"},"geometry":{"type":"Point","coordinates":[1.342395363,41.50383442]}},{"type":"Feature","properties":{"utm_y":"4609482.0070","nom_comarca":"Anoia","longitud":"1.414420497","latitud":"41.62613551","utm_x":"367918.2323","nom":"Montmaneu","codi":"081332","codi_comarca":"06"},"geometry":{"type":"Point","coordinates":[1.414420497,41.62613551]}},{"type":"Feature","properties":{"utm_y":"4631915.6510","nom_comarca":"Selva","longitud":"2.809763769","latitud":"41.83897595","utm_x":"484205.4273","nom":"Caldes de Malavella","codi":"170335","codi_comarca":"34"},"geometry":{"type":"Point","coordinates":[2.809763769,41.83897595]}},{"type":"Feature","properties":{"utm_y":"4708471.4160","nom_comarca":"Pallars Sobirà","longitud":"1.242875431","latitud":"42.51515105","utm_x":"355656.7296","nom":"Tírvia","codi":"252213","codi_comarca":"26"},"geometry":{"type":"Point","coordinates":[1.242875431,42.51515105]}},{"type":"Feature","properties":{"utm_y":"4578041.3860","nom_comarca":"Alt Penedès","longitud":"1.697222865","latitud":"41.34649761","utm_x":"391009.0313","nom":"Vilafranca del Penedès","codi":"083054","codi_comarca":"03"},"geometry":{"type":"Point","coordinates":[1.697222865,41.34649761]}},{"type":"Feature","properties":{"utm_y":"4559820.0990","nom_comarca":"Tarragonès","longitud":"1.414486274","latitud":"41.17882324","utm_x":"367014.6194","nom":"Pobla de Montornès, la","codi":"431114","codi_comarca":"36"},"geometry":{"type":"Point","coordinates":[1.414486274,41.17882324]}},{"type":"Feature","properties":{"utm_y":"4565252.1060","nom_comarca":"Alt Camp","longitud":"1.217774332","latitud":"41.22487450","utm_x":"350619.4659","nom":"Rourell, el","codi":"431346","codi_comarca":"01"},"geometry":{"type":"Point","coordinates":[1.217774332,41.2248745]}},{"type":"Feature","properties":{"utm_y":"4649863.1870","nom_comarca":"Baix Empordà","longitud":"3.068398309","latitud":"42.00076286","utm_x":"505664.5177","nom":"Ullastret","codi":"172057","codi_comarca":"10"},"geometry":{"type":"Point","coordinates":[3.068398309,42.00076286]}},{"type":"Feature","properties":{"utm_y":"4598609.7620","nom_comarca":"Anoia","longitud":"1.623045210","latitud":"41.53089786","utm_x":"385128.8219","nom":"Carme","codi":"080484","codi_comarca":"06"},"geometry":{"type":"Point","coordinates":[1.62304521,41.53089786]}},{"type":"Feature","properties":{"utm_y":"4491059.4590","nom_comarca":"Montsià","longitud":"0.481966932","latitud":"40.54286380","utm_x":"286762.4333","nom":"Alcanar","codi":"430043","codi_comarca":"22"},"geometry":{"type":"Point","coordinates":[0.481966932,40.5428638]}},{"type":"Feature","properties":{"utm_y":"4592174.5720","nom_comarca":"Maresme","longitud":"2.319018119","latitud":"41.47916172","utm_x":"443144.9831","nom":"Masnou, el","codi":"081189","codi_comarca":"21"},"geometry":{"type":"Point","coordinates":[2.319018119,41.47916172]}},{"type":"Feature","properties":{"utm_y":"4602771.2730","nom_comarca":"Conca de Barberà","longitud":"1.236228855","latitud":"41.56309674","utm_x":"352930.9237","nom":"Vallfogona de Riucorb","codi":"431592","codi_comarca":"16"},"geometry":{"type":"Point","coordinates":[1.236228855,41.56309674]}},{"type":"Feature","properties":{"utm_y":"4555820.4810","nom_comarca":"Tarragonès","longitud":"1.376896997","latitud":"41.14227297","utm_x":"363786.0191","nom":"Altafulla","codi":"430120","codi_comarca":"36"},"geometry":{"type":"Point","coordinates":[1.376896997,41.14227297]}},{"type":"Feature","properties":{"utm_y":"4651839.3040","nom_comarca":"Alt Urgell","longitud":"1.294293646","latitud":"42.00590676","utm_x":"358748.3050","nom":"Bassella","codi":"250447","codi_comarca":"04"},"geometry":{"type":"Point","coordinates":[1.294293646,42.00590676]}},{"type":"Feature","properties":{"utm_y":"4541689.8210","nom_comarca":"Ribera d'Ebre","longitud":"0.597134391","latitud":"41.00136649","utm_x":"297911.1401","nom":"Rasquera","codi":"431212","codi_comarca":"30"},"geometry":{"type":"Point","coordinates":[0.597134391,41.00136649]}},{"type":"Feature","properties":{"utm_y":"4571453.3770","nom_comarca":"Baix Camp","longitud":"1.003933683","latitud":"41.27722074","utm_x":"332828.6549","nom":"Febró, la","codi":"430574","codi_comarca":"08"},"geometry":{"type":"Point","coordinates":[1.003933683,41.27722074]}},{"type":"Feature","properties":{"utm_y":"4685820.2310","nom_comarca":"Alt Empordà","longitud":"3.186985848","latitud":"42.32447472","utm_x":"515406.8057","nom":"Selva de Mar, la","codi":"171886","codi_comarca":"02"},"geometry":{"type":"Point","coordinates":[3.186985848,42.32447472]}},{"type":"Feature","properties":{"utm_y":"4612684.1270","nom_comarca":"Anoia","longitud":"1.488662991","latitud":"41.65597683","utm_x":"374161.0315","nom":"Veciana","codi":"082975","codi_comarca":"06"},"geometry":{"type":"Point","coordinates":[1.488662991,41.65597683]}},{"type":"Feature","properties":{"utm_y":"4688745.3070","nom_comarca":"Alt Empordà","longitud":"2.972460262","latitud":"42.35096750","utm_x":"497731.8002","nom":"Masarac","codi":"171002","codi_comarca":"02"},"geometry":{"type":"Point","coordinates":[2.972460262,42.3509675]}},{"type":"Feature","properties":{"utm_y":"4588329.8550","nom_comarca":"Alt Penedès","longitud":"1.863167973","latitud":"41.44092894","utm_x":"405029.8948","nom":"Gelida","codi":"080919","codi_comarca":"03"},"geometry":{"type":"Point","coordinates":[1.863167973,41.44092894]}},{"type":"Feature","properties":{"utm_y":"4597368.5490","nom_comarca":"Maresme","longitud":"2.367716483","latitud":"41.52622386","utm_x":"447249.0286","nom":"Cabrils","codi":"080305","codi_comarca":"21"},"geometry":{"type":"Point","coordinates":[2.367716483,41.52622386]}},{"type":"Feature","properties":{"utm_y":"4614115.9960","nom_comarca":"Segarra","longitud":"1.271257470","latitud":"41.66580832","utm_x":"356080.4117","nom":"Cervera","codi":"250729","codi_comarca":"32"},"geometry":{"type":"Point","coordinates":[1.27125747,41.66580832]}},{"type":"Feature","properties":{"utm_y":"4679445.6340","nom_comarca":"Alt Empordà","longitud":"2.960886614","latitud":"42.26720960","utm_x":"496774.3097","nom":"Figueres","codi":"170669","codi_comarca":"02"},"geometry":{"type":"Point","coordinates":[2.960886614,42.2672096]}},{"type":"Feature","properties":{"utm_y":"4675554.9030","nom_comarca":"Garrotxa","longitud":"2.596166170","latitud":"42.23146439","utm_x":"466676.8920","nom":"Montagut i Oix","codi":"171096","codi_comarca":"19"},"geometry":{"type":"Point","coordinates":[2.59616617,42.23146439]}},{"type":"Feature","properties":{"utm_y":"4629461.9820","nom_comarca":"Selva","longitud":"2.513754625","latitud":"41.81600431","utm_x":"459614.4610","nom":"Arbúcies","codi":"170097","codi_comarca":"34"},"geometry":{"type":"Point","coordinates":[2.513754625,41.81600431]}},{"type":"Feature","properties":{"utm_y":"4547698.6760","nom_comarca":"Terra Alta","longitud":"0.439107295","latitud":"41.05208342","utm_x":"284784.6512","nom":"Gandesa","codi":"430640","codi_comarca":"37"},"geometry":{"type":"Point","coordinates":[0.439107295,41.05208342]}},{"type":"Feature","properties":{"utm_y":"4588989.2020","nom_comarca":"Barcelonès","longitud":"2.247791638","latitud":"41.45002603","utm_x":"437170.1396","nom":"Badalona","codi":"080155","codi_comarca":"13"},"geometry":{"type":"Point","coordinates":[2.247791638,41.45002603]}},{"type":"Feature","properties":{"utm_y":"4510125.4720","nom_comarca":"Baix Ebre","longitud":"0.722777588","latitud":"40.71960517","utm_x":"307665.1507","nom":"Deltebre","codi":"439018","codi_comarca":"09"},"geometry":{"type":"Point","coordinates":[0.722777588,40.71960517]}},{"type":"Feature","properties":{"utm_y":"4527996.7030","nom_comarca":"Baix Ebre","longitud":"0.400259187","latitud":"40.87375777","utm_x":"280930.2447","nom":"Alfara de Carles","codi":"430081","codi_comarca":"09"},"geometry":{"type":"Point","coordinates":[0.400259187,40.87375777]}},{"type":"Feature","properties":{"utm_y":"4622566.7420","nom_comarca":"Moianès","longitud":"2.120502990","latitud":"41.75156183","utm_x":"426879.1884","nom":"Castellterçol","codi":"080641","codi_comarca":"42"},"geometry":{"type":"Point","coordinates":[2.12050299,41.75156183]}},{"type":"Feature","properties":{"utm_y":"4636603.3100","nom_comarca":"Osona","longitud":"2.177584873","latitud":"41.87840992","utm_x":"431759.7679","nom":"Muntanyola","codi":"081290","codi_comarca":"24"},"geometry":{"type":"Point","coordinates":[2.177584873,41.87840992]}},{"type":"Feature","properties":{"utm_y":"4553349.2690","nom_comarca":"Baix Camp","longitud":"0.936622714","latitud":"41.11296714","utm_x":"326758.2959","nom":"Vilanova d'Escornalbou","codi":"431671","codi_comarca":"08"},"geometry":{"type":"Point","coordinates":[0.936622714,41.11296714]}},{"type":"Feature","properties":{"utm_y":"4658500.3030","nom_comarca":"Alt Urgell","longitud":"1.311948140","latitud":"42.06615809","utm_x":"360342.3577","nom":"Oliana","codi":"251497","codi_comarca":"04"},"geometry":{"type":"Point","coordinates":[1.31194814,42.06615809]}},{"type":"Feature","properties":{"utm_y":"4634354.1580","nom_comarca":"Baix Empordà","longitud":"3.075838423","latitud":"41.86107184","utm_x":"506294.4011","nom":"Calonge i Sant Antoni","codi":"170340","codi_comarca":"10"},"geometry":{"type":"Point","coordinates":[3.075838423,41.86107184]}},{"type":"Feature","properties":{"utm_y":"4615838.0480","nom_comarca":"Vallès Oriental","longitud":"2.446096480","latitud":"41.69298714","utm_x":"453907.1038","nom":"Santa Maria de Palautordera","codi":"082592","codi_comarca":"41"},"geometry":{"type":"Point","coordinates":[2.44609648,41.69298714]}},{"type":"Feature","properties":{"utm_y":"4590971.3420","nom_comarca":"Conca de Barberà","longitud":"1.177765474","latitud":"41.45590429","utm_x":"347804.9198","nom":"Solivella","codi":"431476","codi_comarca":"16"},"geometry":{"type":"Point","coordinates":[1.177765474,41.45590429]}},{"type":"Feature","properties":{"utm_y":"4615995.5860","nom_comarca":"Vallès Oriental","longitud":"2.352943715","latitud":"41.69391937","utm_x":"446156.1692","nom":"Cànoves i Samalús","codi":"080425","codi_comarca":"41"},"geometry":{"type":"Point","coordinates":[2.352943715,41.69391937]}},{"type":"Feature","properties":{"utm_y":"4698370.1940","nom_comarca":"Cerdanya","longitud":"1.926947695","latitud":"42.43263033","utm_x":"411736.3821","nom":"Puigcerdà","codi":"171411","codi_comarca":"15"},"geometry":{"type":"Point","coordinates":[1.926947695,42.43263033]}},{"type":"Feature","properties":{"utm_y":"4598496.6500","nom_comarca":"Vallès Oriental","longitud":"2.210310853","latitud":"41.53541184","utm_x":"434126.0170","nom":"Mollet del Vallès","codi":"081249","codi_comarca":"41"},"geometry":{"type":"Point","coordinates":[2.210310853,41.53541184]}},{"type":"Feature","properties":{"utm_y":"4661681.2290","nom_comarca":"Baix Empordà","longitud":"3.030486814","latitud":"42.10721936","utm_x":"502520.6025","nom":"Garrigoles","codi":"170767","codi_comarca":"10"},"geometry":{"type":"Point","coordinates":[3.030486814,42.10721936]}},{"type":"Feature","properties":{"utm_y":"4720282.8440","nom_comarca":"Pallars Sobirà","longitud":"1.249167838","latitud":"42.62161411","utm_x":"356418.1055","nom":"Lladorre","codi":"251235","codi_comarca":"26"},"geometry":{"type":"Point","coordinates":[1.249167838,42.62161411]}},{"type":"Feature","properties":{"utm_y":"4630045.3780","nom_comarca":"Selva","longitud":"2.716505285","latitud":"41.82193823","utm_x":"476456.2908","nom":"Riudarenes","codi":"171485","codi_comarca":"34"},"geometry":{"type":"Point","coordinates":[2.716505285,41.82193823]}},{"type":"Feature","properties":{"utm_y":"4632317.8080","nom_comarca":"Noguera","longitud":"0.727346844","latitud":"41.82026728","utm_x":"311249.9846","nom":"Castelló de Farfanya","codi":"250693","codi_comarca":"23"},"geometry":{"type":"Point","coordinates":[0.727346844,41.82026728]}},{"type":"Feature","properties":{"utm_y":"4676011.0620","nom_comarca":"Berguedà","longitud":"1.736147373","latitud":"42.22932023","utm_x":"395706.5456","nom":"Saldes","codi":"081901","codi_comarca":"14"},"geometry":{"type":"Point","coordinates":[1.736147373,42.22932023]}},{"type":"Feature","properties":{"utm_y":"4558549.9510","nom_comarca":"Tarragonès","longitud":"1.440627272","latitud":"41.16773933","utm_x":"369185.2229","nom":"Creixell","codi":"430509","codi_comarca":"36"},"geometry":{"type":"Point","coordinates":[1.440627272,41.16773933]}},{"type":"Feature","properties":{"utm_y":"4567855.0370","nom_comarca":"Alt Camp","longitud":"1.295178559","latitud":"41.24949229","utm_x":"357161.1268","nom":"Nulles","codi":"430982","codi_comarca":"01"},"geometry":{"type":"Point","coordinates":[1.295178559,41.24949229]}},{"type":"Feature","properties":{"utm_y":"4623949.9010","nom_comarca":"Segarra","longitud":"1.274869878","latitud":"41.75443314","utm_x":"356578.3476","nom":"Torrefeta i Florejacs","codi":"259078","codi_comarca":"32"},"geometry":{"type":"Point","coordinates":[1.274869878,41.75443314]}},{"type":"Feature","properties":{"utm_y":"4610123.0810","nom_comarca":"Urgell","longitud":"1.012110106","latitud":"41.62565452","utm_x":"334402.3431","nom":"Bellpuig","codi":"250501","codi_comarca":"38"},"geometry":{"type":"Point","coordinates":[1.012110106,41.62565452]}},{"type":"Feature","properties":{"utm_y":"4552013.3410","nom_comarca":"Baix Camp","longitud":"0.888307781","latitud":"41.10005832","utm_x":"322666.7691","nom":"Colldejou","codi":"430458","codi_comarca":"08"},"geometry":{"type":"Point","coordinates":[0.888307781,41.10005832]}},{"type":"Feature","properties":{"utm_y":"4645258.1990","nom_comarca":"Baix Empordà","longitud":"3.038149687","latitud":"41.95930116","utm_x":"503161.4788","nom":"Bisbal d'Empordà, la","codi":"170221","codi_comarca":"10"},"geometry":{"type":"Point","coordinates":[3.038149687,41.95930116]}},{"type":"Feature","properties":{"utm_y":"4632759.4940","nom_comarca":"Baix Empordà","longitud":"3.129581349","latitud":"41.84666081","utm_x":"510757.3458","nom":"Palamós","codi":"171181","codi_comarca":"10"},"geometry":{"type":"Point","coordinates":[3.129581349,41.84666081]}},{"type":"Feature","properties":{"utm_y":"4582940.9740","nom_comarca":"Alt Penedès","longitud":"1.663622541","latitud":"41.39024459","utm_x":"388272.8277","nom":"Vilobí del Penedès","codi":"083041","codi_comarca":"03"},"geometry":{"type":"Point","coordinates":[1.663622541,41.39024459]}},{"type":"Feature","properties":{"utm_y":"4552496.5110","nom_comarca":"Priorat","longitud":"0.752965188","latitud":"41.10184911","utm_x":"311305.4778","nom":"Guiamets, els","codi":"430705","codi_comarca":"29"},"geometry":{"type":"Point","coordinates":[0.752965188,41.10184911]}},{"type":"Feature","properties":{"utm_y":"4687391.7510","nom_comarca":"Alt Empordà","longitud":"3.204538207","latitud":"42.33859809","utm_x":"516849.2729","nom":"Port de la Selva, el","codi":"171404","codi_comarca":"02"},"geometry":{"type":"Point","coordinates":[3.204538207,42.33859809]}},{"type":"Feature","properties":{"utm_y":"4553261.8790","nom_comarca":"Tarragonès","longitud":"1.254358212","latitud":"41.11743424","utm_x":"353446.6264","nom":"Tarragona","codi":"431482","codi_comarca":"36"},"geometry":{"type":"Point","coordinates":[1.254358212,41.11743424]}},{"type":"Feature","properties":{"utm_y":"4635198.9140","nom_comarca":"Bages","longitud":"1.876819518","latitud":"41.86321312","utm_x":"406781.2532","nom":"Balsareny","codi":"080180","codi_comarca":"07"},"geometry":{"type":"Point","coordinates":[1.876819518,41.86321312]}},{"type":"Feature","properties":{"utm_y":"4665341.0430","nom_comarca":"Solsonès","longitud":"1.666343154","latitud":"42.13243407","utm_x":"389778.0118","nom":"Guixers","codi":"251116","codi_comarca":"35"},"geometry":{"type":"Point","coordinates":[1.666343154,42.13243407]}},{"type":"Feature","properties":{"utm_y":"4633411.6890","nom_comarca":"Osona","longitud":"2.229175918","latitud":"41.85002154","utm_x":"436012.2851","nom":"Tona","codi":"082830","codi_comarca":"24"},"geometry":{"type":"Point","coordinates":[2.229175918,41.85002154]}},{"type":"Feature","properties":{"utm_y":"4555435.7330","nom_comarca":"Terra Alta","longitud":"0.410194282","latitud":"41.12112328","utm_x":"282582.4557","nom":"Vilalba dels Arcs","codi":"431750","codi_comarca":"37"},"geometry":{"type":"Point","coordinates":[0.410194282,41.12112328]}},{"type":"Feature","properties":{"utm_y":"4639262.9190","nom_comarca":"Bages","longitud":"1.879336762","latitud":"41.89984083","utm_x":"407043.2844","nom":"Navàs","codi":"081419","codi_comarca":"07"},"geometry":{"type":"Point","coordinates":[1.879336762,41.89984083]}},{"type":"Feature","properties":{"utm_y":"4586989.1480","nom_comarca":"Alt Camp","longitud":"1.397736804","latitud":"41.42331134","utm_x":"366110.8242","nom":"Querol","codi":"431205","codi_comarca":"01"},"geometry":{"type":"Point","coordinates":[1.397736804,41.42331134]}},{"type":"Feature","properties":{"utm_y":"4592596.6860","nom_comarca":"Segrià","longitud":"0.561683506","latitud":"41.45912928","utm_x":"296355.7587","nom":"Sarroca de Lleida","codi":"252000","codi_comarca":"33"},"geometry":{"type":"Point","coordinates":[0.561683506,41.45912928]}},{"type":"Feature","properties":{"utm_y":"4580852.9540","nom_comarca":"Alt Penedès","longitud":"1.689614095","latitud":"41.37173606","utm_x":"390414.8154","nom":"Cabanyes, les","codi":"080272","codi_comarca":"03"},"geometry":{"type":"Point","coordinates":[1.689614095,41.37173606]}},{"type":"Feature","properties":{"utm_y":"4616325.9650","nom_comarca":"Selva","longitud":"2.847602852","latitud":"41.69861565","utm_x":"487319.4493","nom":"Lloret de Mar","codi":"170950","codi_comarca":"34"},"geometry":{"type":"Point","coordinates":[2.847602852,41.69861565]}},{"type":"Feature","properties":{"utm_y":"4670933.7530","nom_comarca":"Berguedà","longitud":"2.025486574","latitud":"42.18641639","utm_x":"419528.7140","nom":"Sant Jaume de Frontanyà","codi":"082166","codi_comarca":"14"},"geometry":{"type":"Point","coordinates":[2.025486574,42.18641639]}},{"type":"Feature","properties":{"utm_y":"4557275.5090","nom_comarca":"Priorat","longitud":"0.820118665","latitud":"41.14618499","utm_x":"317068.2924","nom":"Falset","codi":"430555","codi_comarca":"29"},"geometry":{"type":"Point","coordinates":[0.820118665,41.14618499]}},{"type":"Feature","properties":{"utm_y":"4606261.1460","nom_comarca":"Anoia","longitud":"1.444155159","latitud":"41.59753198","utm_x":"370337.9773","nom":"Argençola","codi":"080082","codi_comarca":"06"},"geometry":{"type":"Point","coordinates":[1.444155159,41.59753198]}},{"type":"Feature","properties":{"utm_y":"4571080.5050","nom_comarca":"Alt Camp","longitud":"1.399037098","latitud":"41.28003658","utm_x":"365925.7586","nom":"Rodonyà","codi":"431325","codi_comarca":"01"},"geometry":{"type":"Point","coordinates":[1.399037098,41.28003658]}},{"type":"Feature","properties":{"utm_y":"4683746.3200","nom_comarca":"Alt Urgell","longitud":"1.341832868","latitud":"42.29395966","utm_x":"363306.5543","nom":"Valls d'Aguilar, les","codi":"259062","codi_comarca":"04"},"geometry":{"type":"Point","coordinates":[1.341832868,42.29395966]}},{"type":"Feature","properties":{"utm_y":"4654864.2740","nom_comarca":"Gironès","longitud":"2.942815805","latitud":"42.04581194","utm_x":"495267.5393","nom":"Sant Joan de Mollet","codi":"171680","codi_comarca":"20"},"geometry":{"type":"Point","coordinates":[2.942815805,42.04581194]}},{"type":"Feature","properties":{"utm_y":"4613267.7020","nom_comarca":"Bages","longitud":"1.863615971","latitud":"41.66555240","utm_x":"405395.4519","nom":"Sant Vicenç de Castellet","codi":"082628","codi_comarca":"07"},"geometry":{"type":"Point","coordinates":[1.863615971,41.6655524]}},{"type":"Feature","properties":{"utm_y":"4686871.1720","nom_comarca":"Alt Urgell","longitud":"1.584403220","latitud":"42.32535337","utm_x":"383361.6087","nom":"Cava","codi":"250714","codi_comarca":"04"},"geometry":{"type":"Point","coordinates":[1.58440322,42.32535337]}},{"type":"Feature","properties":{"utm_y":"4597446.4660","nom_comarca":"Garrigues","longitud":"0.919841953","latitud":"41.50984771","utm_x":"326405.8420","nom":"Floresta, la","codi":"250925","codi_comarca":"18"},"geometry":{"type":"Point","coordinates":[0.919841953,41.50984771]}},{"type":"Feature","properties":{"utm_y":"4673028.0060","nom_comarca":"Berguedà","longitud":"1.818586195","latitud":"42.20333326","utm_x":"402469.5336","nom":"Vallcebre","codi":"082938","codi_comarca":"14"},"geometry":{"type":"Point","coordinates":[1.818586195,42.20333326]}},{"type":"Feature","properties":{"utm_y":"4690585.6060","nom_comarca":"Cerdanya","longitud":"1.695252157","latitud":"42.36012031","utm_x":"392554.4104","nom":"Montellà i Martinet","codi":"251399","codi_comarca":"15"},"geometry":{"type":"Point","coordinates":[1.695252157,42.36012031]}},{"type":"Feature","properties":{"utm_y":"4674545.3140","nom_comarca":"Alt Empordà","longitud":"2.926166502","latitud":"42.22305885","utm_x":"493906.6866","nom":"Borrassà","codi":"170268","codi_comarca":"02"},"geometry":{"type":"Point","coordinates":[2.926166502,42.22305885]}},{"type":"Feature","properties":{"utm_y":"4687887.3370","nom_comarca":"Pallars Jussà","longitud":"0.936534555","latitud":"42.32467350","utm_x":"329976.6560","nom":"Senterada","codi":"252022","codi_comarca":"25"},"geometry":{"type":"Point","coordinates":[0.936534555,42.3246735]}},{"type":"Feature","properties":{"utm_y":"4571176.0940","nom_comarca":"Baix Penedès","longitud":"1.552917107","latitud":"41.28293512","utm_x":"378818.3366","nom":"Llorenç del Penedès","codi":"430748","codi_comarca":"12"},"geometry":{"type":"Point","coordinates":[1.552917107,41.28293512]}},{"type":"Feature","properties":{"utm_y":"4596387.7510","nom_comarca":"Vallès Occidental","longitud":"2.124669407","latitud":"41.51579636","utm_x":"426959.8889","nom":"Barberà del Vallès","codi":"082520","codi_comarca":"40"},"geometry":{"type":"Point","coordinates":[2.124669407,41.51579636]}},{"type":"Feature","properties":{"utm_y":"4665325.6530","nom_comarca":"Berguedà","longitud":"1.993986452","latitud":"42.13563637","utm_x":"416861.0816","nom":"Borredà","codi":"080240","codi_comarca":"14"},"geometry":{"type":"Point","coordinates":[1.993986452,42.13563637]}},{"type":"Feature","properties":{"utm_y":"4647914.7440","nom_comarca":"Osona","longitud":"2.177151812","latitud":"41.98028526","utm_x":"431832.3885","nom":"Sant Bartomeu del Grau","codi":"081995","codi_comarca":"24"},"geometry":{"type":"Point","coordinates":[2.177151812,41.98028526]}},{"type":"Feature","properties":{"utm_y":"4572771.5370","nom_comarca":"Priorat","longitud":"0.754172771","latitud":"41.28448996","utm_x":"311930.6325","nom":"Margalef","codi":"430751","codi_comarca":"29"},"geometry":{"type":"Point","coordinates":[0.754172771,41.28448996]}},{"type":"Feature","properties":{"utm_y":"4676145.4520","nom_comarca":"Garrotxa","longitud":"2.709811150","latitud":"42.23712686","utm_x":"476056.6711","nom":"Beuda","codi":"170216","codi_comarca":"19"},"geometry":{"type":"Point","coordinates":[2.70981115,42.23712686]}},{"type":"Feature","properties":{"utm_y":"4597739.2310","nom_comarca":"Conca de Barberà","longitud":"1.291294091","latitud":"41.51860535","utm_x":"357424.8922","nom":"Conesa","codi":"430461","codi_comarca":"16"},"geometry":{"type":"Point","coordinates":[1.291294091,41.51860535]}},{"type":"Feature","properties":{"utm_y":"4628646.2620","nom_comarca":"Segarra","longitud":"1.310765521","latitud":"41.79726476","utm_x":"359656.1301","nom":"Massoteres","codi":"251327","codi_comarca":"32"},"geometry":{"type":"Point","coordinates":[1.310765521,41.79726476]}},{"type":"Feature","properties":{"utm_y":"4596650.8420","nom_comarca":"Baix Llobregat","longitud":"1.902237925","latitud":"41.51625790","utm_x":"408399.9631","nom":"Abrera","codi":"080018","codi_comarca":"11"},"geometry":{"type":"Point","coordinates":[1.902237925,41.5162579]}},{"type":"Feature","properties":{"utm_y":"4599205.8660","nom_comarca":"Baix Llobregat","longitud":"1.870708537","latitud":"41.53896619","utm_x":"405801.9785","nom":"Esparreguera","codi":"080765","codi_comarca":"11"},"geometry":{"type":"Point","coordinates":[1.870708537,41.53896619]}},{"type":"Feature","properties":{"utm_y":"4618446.6970","nom_comarca":"Selva","longitud":"2.930836887","latitud":"41.71779758","utm_x":"494246.8372","nom":"Tossa de Mar","codi":"172023","codi_comarca":"34"},"geometry":{"type":"Point","coordinates":[2.930836887,41.71779758]}},{"type":"Feature","properties":{"utm_y":"4600580.5620","nom_comarca":"Maresme","longitud":"2.354940460","latitud":"41.55508453","utm_x":"446207.0516","nom":"Òrrius","codi":"081537","codi_comarca":"21"},"geometry":{"type":"Point","coordinates":[2.35494046,41.55508453]}},{"type":"Feature","properties":{"utm_y":"4684758.7750","nom_comarca":"Ripollès","longitud":"2.214123574","latitud":"42.31237460","utm_x":"435234.6731","nom":"Pardines","codi":"171254","codi_comarca":"31"},"geometry":{"type":"Point","coordinates":[2.214123574,42.3123746]}},{"type":"Feature","properties":{"utm_y":"4592046.3920","nom_comarca":"Garrigues","longitud":"1.024311820","latitud":"41.46305309","utm_x":"335005.8143","nom":"Fulleda","codi":"250978","codi_comarca":"18"},"geometry":{"type":"Point","coordinates":[1.02431182,41.46305309]}},{"type":"Feature","properties":{"utm_y":"4659024.9820","nom_comarca":"Berguedà","longitud":"1.825157170","latitud":"42.07728596","utm_x":"402819.4280","nom":"Avià","codi":"080116","codi_comarca":"14"},"geometry":{"type":"Point","coordinates":[1.82515717,42.07728596]}},{"type":"Feature","properties":{"utm_y":"4626094.1280","nom_comarca":"Anoia","longitud":"1.437574989","latitud":"41.77607379","utm_x":"370149.1749","nom":"Castellfollit de Riubregós","codi":"080608","codi_comarca":"06"},"geometry":{"type":"Point","coordinates":[1.437574989,41.77607379]}},{"type":"Feature","properties":{"utm_y":"4642535.3380","nom_comarca":"Gironès","longitud":"2.810456867","latitud":"41.93462692","utm_x":"484286.4289","nom":"Fornells de la Selva","codi":"170736","codi_comarca":"20"},"geometry":{"type":"Point","coordinates":[2.810456867,41.93462692]}},{"type":"Feature","properties":{"utm_y":"4567326.6580","nom_comarca":"Ribera d'Ebre","longitud":"0.549946451","latitud":"41.23128181","utm_x":"294660.3758","nom":"Flix","codi":"430607","codi_comarca":"30"},"geometry":{"type":"Point","coordinates":[0.549946451,41.23128181]}},{"type":"Feature","properties":{"utm_y":"4643353.4060","nom_comarca":"Solsonès","longitud":"1.624774181","latitud":"41.93391509","utm_x":"385988.1119","nom":"Clariana de Cardener","codi":"250753","codi_comarca":"35"},"geometry":{"type":"Point","coordinates":[1.624774181,41.93391509]}},{"type":"Feature","properties":{"utm_y":"4652535.5940","nom_comarca":"Berguedà","longitud":"1.765071661","latitud":"42.01820919","utm_x":"397754.4974","nom":"Montclar","codi":"081304","codi_comarca":"14"},"geometry":{"type":"Point","coordinates":[1.765071661,42.01820919]}},{"type":"Feature","properties":{"utm_y":"4624388.5390","nom_comarca":"Vallès Oriental","longitud":"2.249396729","latitud":"41.76888504","utm_x":"437612.1891","nom":"Aiguafreda","codi":"080142","codi_comarca":"41"},"geometry":{"type":"Point","coordinates":[2.249396729,41.76888504]}},{"type":"Feature","properties":{"utm_y":"4644087.6080","nom_comarca":"Osona","longitud":"2.384824808","latitud":"41.94711624","utm_x":"449010.3858","nom":"Vilanova de Sau","codi":"083036","codi_comarca":"24"},"geometry":{"type":"Point","coordinates":[2.384824808,41.94711624]}},{"type":"Feature","properties":{"utm_y":"4618002.1990","nom_comarca":"Segrià","longitud":"0.692910362","latitud":"41.69065099","utm_x":"308003.6342","nom":"Corbins","codi":"250788","codi_comarca":"33"},"geometry":{"type":"Point","coordinates":[0.692910362,41.69065099]}},{"type":"Feature","properties":{"utm_y":"4673532.4910","nom_comarca":"Garrotxa","longitud":"2.641698357","latitud":"42.21340121","utm_x":"470425.6426","nom":"Argelaguer","codi":"170101","codi_comarca":"19"},"geometry":{"type":"Point","coordinates":[2.641698357,42.21340121]}},{"type":"Feature","properties":{"utm_y":"4641020.3050","nom_comarca":"Gironès","longitud":"2.859278593","latitud":"41.92105157","utm_x":"488331.3922","nom":"Llambilles","codi":"170904","codi_comarca":"20"},"geometry":{"type":"Point","coordinates":[2.859278593,41.92105157]}},{"type":"Feature","properties":{"utm_y":"4614475.5050","nom_comarca":"Vallès Oriental","longitud":"2.208271917","latitud":"41.67932227","utm_x":"434102.5437","nom":"Bigues i Riells del Fai","codi":"080235","codi_comarca":"41"},"geometry":{"type":"Point","coordinates":[2.208271917,41.67932227]}},{"type":"Feature","properties":{"utm_y":"4612862.3310","nom_comarca":"Maresme","longitud":"2.749412882","latitud":"41.66724600","utm_x":"479139.1955","nom":"Palafolls","codi":"081555","codi_comarca":"21"},"geometry":{"type":"Point","coordinates":[2.749412882,41.667246]}},{"type":"Feature","properties":{"utm_y":"4588296.4180","nom_comarca":"Garrigues","longitud":"0.975099399","latitud":"41.42842162","utm_x":"330805.7794","nom":"Vinaixa","codi":"252555","codi_comarca":"18"},"geometry":{"type":"Point","coordinates":[0.975099399,41.42842162]}},{"type":"Feature","properties":{"utm_y":"4559471.5500","nom_comarca":"Priorat","longitud":"0.706156478","latitud":"41.16375075","utm_x":"307555.5247","nom":"Molar, el","codi":"430859","codi_comarca":"29"},"geometry":{"type":"Point","coordinates":[0.706156478,41.16375075]}},{"type":"Feature","properties":{"utm_y":"4671415.4420","nom_comarca":"Garrotxa","longitud":"2.714341610","latitud":"42.19453826","utm_x":"476414.6358","nom":"Sant Ferriol","codi":"171621","codi_comarca":"19"},"geometry":{"type":"Point","coordinates":[2.71434161,42.19453826]}},{"type":"Feature","properties":{"utm_y":"4693220.2970","nom_comarca":"Alt Empordà","longitud":"3.000690169","latitud":"42.39127293","utm_x":"500056.8067","nom":"Espolla","codi":"170643","codi_comarca":"02"},"geometry":{"type":"Point","coordinates":[3.000690169,42.39127293]}},{"type":"Feature","properties":{"utm_y":"4652424.0690","nom_comarca":"Baix Empordà","longitud":"3.031775971","latitud":"42.02384380","utm_x":"502630.6277","nom":"Parlavà","codi":"171267","codi_comarca":"10"},"geometry":{"type":"Point","coordinates":[3.031775971,42.0238438]}},{"type":"Feature","properties":{"utm_y":"4577778.7260","nom_comarca":"Baix Llobregat","longitud":"2.042704219","latitud":"41.34752428","utm_x":"419913.8378","nom":"Sant Boi de Llobregat","codi":"082009","codi_comarca":"11"},"geometry":{"type":"Point","coordinates":[2.042704219,41.34752428]}},{"type":"Feature","properties":{"utm_y":"4631637.1200","nom_comarca":"Solsonès","longitud":"1.541994622","latitud":"41.82737047","utm_x":"378924.1830","nom":"Pinós","codi":"251673","codi_comarca":"35"},"geometry":{"type":"Point","coordinates":[1.541994622,41.82737047]}},{"type":"Feature","properties":{"utm_y":"4697305.0320","nom_comarca":"Pallars Sobirà","longitud":"1.131249289","latitud":"42.41282570","utm_x":"346236.3597","nom":"Sort","codi":"252094","codi_comarca":"26"},"geometry":{"type":"Point","coordinates":[1.131249289,42.4128257]}},{"type":"Feature","properties":{"utm_y":"4564418.2190","nom_comarca":"Garraf","longitud":"1.726180234","latitud":"41.22411114","utm_x":"393232.3263","nom":"Vilanova i la Geltrú","codi":"083073","codi_comarca":"17"},"geometry":{"type":"Point","coordinates":[1.726180234,41.22411114]}},{"type":"Feature","properties":{"utm_y":"4570741.3330","nom_comarca":"Baix Penedès","longitud":"1.580800344","latitud":"41.27936622","utm_x":"381146.9226","nom":"Banyeres del Penedès","codi":"430206","codi_comarca":"12"},"geometry":{"type":"Point","coordinates":[1.580800344,41.27936622]}},{"type":"Feature","properties":{"utm_y":"4623561.7260","nom_comarca":"Moianès","longitud":"2.148900039","latitud":"41.76073745","utm_x":"429250.1995","nom":"Castellcir","codi":"080556","codi_comarca":"42"},"geometry":{"type":"Point","coordinates":[2.148900039,41.76073745]}},{"type":"Feature","properties":{"utm_y":"4609349.3520","nom_comarca":"Maresme","longitud":"2.707068724","latitud":"41.63550377","utm_x":"475602.1635","nom":"Santa Susanna","codi":"082613","codi_comarca":"21"},"geometry":{"type":"Point","coordinates":[2.707068724,41.63550377]}},{"type":"Feature","properties":{"utm_y":"4644682.6450","nom_comarca":"Osona","longitud":"2.326511576","latitud":"41.95214830","utm_x":"444181.3832","nom":"Tavèrnoles","codi":"082750","codi_comarca":"24"},"geometry":{"type":"Point","coordinates":[2.326511576,41.9521483]}},{"type":"Feature","properties":{"utm_y":"4685620.6950","nom_comarca":"Ripollès","longitud":"2.344137229","latitud":"42.32095448","utm_x":"445956.6966","nom":"Llanars","codi":"170911","codi_comarca":"31"},"geometry":{"type":"Point","coordinates":[2.344137229,42.32095448]}},{"type":"Feature","properties":{"utm_y":"4559587.5400","nom_comarca":"Tarragonès","longitud":"1.326137929","latitud":"41.17547808","utm_x":"359596.9565","nom":"Catllar, el","codi":"430430","codi_comarca":"36"},"geometry":{"type":"Point","coordinates":[1.326137929,41.17547808]}},{"type":"Feature","properties":{"utm_y":"4696074.0310","nom_comarca":"Alt Empordà","longitud":"2.873157090","latitud":"42.41690358","utm_x":"489564.0188","nom":"Jonquera, la","codi":"170865","codi_comarca":"02"},"geometry":{"type":"Point","coordinates":[2.87315709,42.41690358]}},{"type":"Feature","properties":{"utm_y":"4624904.8640","nom_comarca":"Noguera","longitud":"0.965598414","latitud":"41.75797244","utm_x":"330874.6837","nom":"Penelles","codi":"251641","codi_comarca":"23"},"geometry":{"type":"Point","coordinates":[0.965598414,41.75797244]}},{"type":"Feature","properties":{"utm_y":"4611080.9500","nom_comarca":"Pla d'Urgell","longitud":"0.779505499","latitud":"41.63002203","utm_x":"315037.0216","nom":"Bell-lloc d'Urgell","codi":"250485","codi_comarca":"27"},"geometry":{"type":"Point","coordinates":[0.779505499,41.63002203]}},{"type":"Feature","properties":{"utm_y":"4627986.9950","nom_comarca":"Bages","longitud":"1.732630684","latitud":"41.79675681","utm_x":"394705.1795","nom":"Sant Mateu de Bages","codi":"082299","codi_comarca":"07"},"geometry":{"type":"Point","coordinates":[1.732630684,41.79675681]}},{"type":"Feature","properties":{"utm_y":"4631815.3360","nom_comarca":"Bages","longitud":"1.753565253","latitud":"41.83146668","utm_x":"396500.3883","nom":"Súria","codi":"082747","codi_comarca":"07"},"geometry":{"type":"Point","coordinates":[1.753565253,41.83146668]}},{"type":"Feature","properties":{"utm_y":"4677695.9050","nom_comarca":"Ripollès","longitud":"2.090942855","latitud":"42.24785517","utm_x":"425006.6038","nom":"Gombrèn","codi":"170806","codi_comarca":"31"},"geometry":{"type":"Point","coordinates":[2.090942855,42.24785517]}},{"type":"Feature","properties":{"utm_y":"4671604.2280","nom_comarca":"Alt Empordà","longitud":"3.056959228","latitud":"42.19658005","utm_x":"504702.6813","nom":"Vilamacolum","codi":"172253","codi_comarca":"02"},"geometry":{"type":"Point","coordinates":[3.056959228,42.19658005]}},{"type":"Feature","properties":{"utm_y":"4665524.7990","nom_comarca":"Berguedà","longitud":"1.931742789","latitud":"42.13686727","utm_x":"411718.7950","nom":"Vilada","codi":"082994","codi_comarca":"14"},"geometry":{"type":"Point","coordinates":[1.931742789,42.13686727]}},{"type":"Feature","properties":{"utm_y":"4640200.7880","nom_comarca":"Osona","longitud":"2.188605638","latitud":"41.91088985","utm_x":"432708.3315","nom":"Santa Eulàlia de Riuprimer","codi":"082476","codi_comarca":"24"},"geometry":{"type":"Point","coordinates":[2.188605638,41.91088985]}},{"type":"Feature","properties":{"utm_y":"4585054.4490","nom_comarca":"Garrigues","longitud":"0.719020561","latitud":"41.39442803","utm_x":"309307.8639","nom":"Torms, els","codi":"252249","codi_comarca":"18"},"geometry":{"type":"Point","coordinates":[0.719020561,41.39442803]}},{"type":"Feature","properties":{"utm_y":"4593488.4720","nom_comarca":"Segrià","longitud":"0.411037646","latitud":"41.46386720","utm_x":"283788.7721","nom":"Seròs","codi":"252043","codi_comarca":"33"},"geometry":{"type":"Point","coordinates":[0.411037646,41.4638672]}},{"type":"Feature","properties":{"utm_y":"4665660.5250","nom_comarca":"Pla de l'Estany","longitud":"2.789517726","latitud":"42.14286976","utm_x":"482607.4016","nom":"Fontcoberta","codi":"170715","codi_comarca":"28"},"geometry":{"type":"Point","coordinates":[2.789517726,42.14286976]}},{"type":"Feature","properties":{"utm_y":"4690545.9990","nom_comarca":"Cerdanya","longitud":"1.870114118","latitud":"42.36162040","utm_x":"406956.6423","nom":"Das","codi":"170617","codi_comarca":"15"},"geometry":{"type":"Point","coordinates":[1.870114118,42.3616204]}},{"type":"Feature","properties":{"utm_y":"4713879.1170","nom_comarca":"Pallars Sobirà","longitud":"1.227640857","latitud":"42.56361512","utm_x":"354517.8014","nom":"Vall de Cardós","codi":"259010","codi_comarca":"26"},"geometry":{"type":"Point","coordinates":[1.227640857,42.56361512]}},{"type":"Feature","properties":{"utm_y":"4700170.0070","nom_comarca":"Cerdanya","longitud":"1.879209626","latitud":"42.44838226","utm_x":"407832.7476","nom":"Guils de Cerdanya","codi":"170828","codi_comarca":"15"},"geometry":{"type":"Point","coordinates":[1.879209626,42.44838226]}},{"type":"Feature","properties":{"utm_y":"4593820.1300","nom_comarca":"Maresme","longitud":"2.295144857","latitud":"41.49384008","utm_x":"441165.0786","nom":"Alella","codi":"080039","codi_comarca":"21"},"geometry":{"type":"Point","coordinates":[2.295144857,41.49384008]}},{"type":"Feature","properties":{"utm_y":"4575880.7520","nom_comarca":"Segrià","longitud":"0.423582120","latitud":"41.30556557","utm_x":"284313.6132","nom":"Almatret","codi":"250208","codi_comarca":"33"},"geometry":{"type":"Point","coordinates":[0.42358212,41.30556557]}},{"type":"Feature","properties":{"utm_y":"4619595.1790","nom_comarca":"Anoia","longitud":"1.422600785","latitud":"41.71733521","utm_x":"368785.0756","nom":"Pujalt","codi":"081764","codi_comarca":"06"},"geometry":{"type":"Point","coordinates":[1.422600785,41.71733521]}},{"type":"Feature","properties":{"utm_y":"4606896.3800","nom_comarca":"Maresme","longitud":"2.657217840","latitud":"41.61327142","utm_x":"471440.3386","nom":"Calella","codi":"080351","codi_comarca":"21"},"geometry":{"type":"Point","coordinates":[2.65721784,41.61327142]}},{"type":"Feature","properties":{"utm_y":"4545963.5400","nom_comarca":"Ribera d'Ebre","longitud":"0.732607845","latitud":"41.04260664","utm_x":"309424.7499","nom":"Tivissa","codi":"431508","codi_comarca":"30"},"geometry":{"type":"Point","coordinates":[0.732607845,41.04260664]}},{"type":"Feature","properties":{"utm_y":"4566828.4720","nom_comarca":"Priorat","longitud":"0.845276091","latitud":"41.23270288","utm_x":"319417.5992","nom":"Poboleda","codi":"431129","codi_comarca":"29"},"geometry":{"type":"Point","coordinates":[0.845276091,41.23270288]}},{"type":"Feature","properties":{"utm_y":"4701917.6650","nom_comarca":"Cerdanya","longitud":"1.981799668","latitud":"42.46507864","utm_x":"416291.4804","nom":"Llívia","codi":"170947","codi_comarca":"15"},"geometry":{"type":"Point","coordinates":[1.981799668,42.46507864]}},{"type":"Feature","properties":{"utm_y":"4643186.6480","nom_comarca":"Osona","longitud":"2.318462912","latitud":"41.93862682","utm_x":"443502.3707","nom":"Folgueroles","codi":"080832","codi_comarca":"24"},"geometry":{"type":"Point","coordinates":[2.318462912,41.93862682]}},{"type":"Feature","properties":{"utm_y":"4640014.0730","nom_comarca":"Noguera","longitud":"1.045473965","latitud":"41.89543837","utm_x":"337862.6179","nom":"Artesa de Segre","codi":"250349","codi_comarca":"23"},"geometry":{"type":"Point","coordinates":[1.045473965,41.89543837]}},{"type":"Feature","properties":{"utm_y":"4595155.8970","nom_comarca":"Anoia","longitud":"1.811852650","latitud":"41.50189427","utm_x":"400835.9402","nom":"Masquefa","codi":"081192","codi_comarca":"06"},"geometry":{"type":"Point","coordinates":[1.81185265,41.50189427]}},{"type":"Feature","properties":{"utm_y":"4652019.9790","nom_comarca":"Berguedà","longitud":"1.841287149","latitud":"42.01436010","utm_x":"404059.0429","nom":"Casserres","codi":"080497","codi_comarca":"14"},"geometry":{"type":"Point","coordinates":[1.841287149,42.0143601]}},{"type":"Feature","properties":{"utm_y":"4637467.6930","nom_comarca":"Osona","longitud":"2.234413951","latitud":"41.88658813","utm_x":"436483.3166","nom":"Malla","codi":"081115","codi_comarca":"24"},"geometry":{"type":"Point","coordinates":[2.234413951,41.88658813]}},{"type":"Feature","properties":{"utm_y":"4622210.9410","nom_comarca":"Bages","longitud":"1.804848323","latitud":"41.74550716","utm_x":"400626.1452","nom":"Sant Joan de Vilatorrada","codi":"082188","codi_comarca":"07"},"geometry":{"type":"Point","coordinates":[1.804848323,41.74550716]}},{"type":"Feature","properties":{"utm_y":"4604205.5850","nom_comarca":"Vallès Oriental","longitud":"2.325763581","latitud":"41.58756871","utm_x":"443802.0754","nom":"Roca del Vallès, la","codi":"081810","codi_comarca":"41"},"geometry":{"type":"Point","coordinates":[2.325763581,41.58756871]}},{"type":"Feature","properties":{"utm_y":"4605450.7760","nom_comarca":"Vallès Occidental","longitud":"2.026747357","latitud":"41.59664189","utm_x":"418890.0462","nom":"Matadepera","codi":"081206","codi_comarca":"40"},"geometry":{"type":"Point","coordinates":[2.026747357,41.59664189]}},{"type":"Feature","properties":{"utm_y":"4692296.2180","nom_comarca":"Alt Urgell","longitud":"1.522838904","latitud":"42.37343375","utm_x":"378381.6423","nom":"Estamariu","codi":"250886","codi_comarca":"04"},"geometry":{"type":"Point","coordinates":[1.522838904,42.37343375]}},{"type":"Feature","properties":{"utm_y":"4587320.9280","nom_comarca":"Garrigues","longitud":"0.681628690","latitud":"41.41409377","utm_x":"306240.1152","nom":"Soleràs, el","codi":"252069","codi_comarca":"18"},"geometry":{"type":"Point","coordinates":[0.68162869,41.41409377]}},{"type":"Feature","properties":{"utm_y":"4594834.7030","nom_comarca":"Segrià","longitud":"0.617145104","latitud":"41.48044892","utm_x":"301053.3901","nom":"Alcanó","codi":"250100","codi_comarca":"33"},"geometry":{"type":"Point","coordinates":[0.617145104,41.48044892]}},{"type":"Feature","properties":{"utm_y":"4577696.6170","nom_comarca":"Garrigues","longitud":"0.638921343","latitud":"41.32654176","utm_x":"302405.6549","nom":"Bovera","codi":"250560","codi_comarca":"18"},"geometry":{"type":"Point","coordinates":[0.638921343,41.32654176]}},{"type":"Feature","properties":{"utm_y":"4638103.7570","nom_comarca":"Noguera","longitud":"0.877764265","latitud":"41.87525565","utm_x":"323894.1722","nom":"Camarasa","codi":"250621","codi_comarca":"23"},"geometry":{"type":"Point","coordinates":[0.877764265,41.87525565]}},{"type":"Feature","properties":{"utm_y":"4601726.7810","nom_comarca":"Vallès Occidental","longitud":"2.010294804","latitud":"41.56295878","utm_x":"417476.0153","nom":"Terrassa","codi":"082798","codi_comarca":"40"},"geometry":{"type":"Point","coordinates":[2.010294804,41.56295878]}},{"type":"Feature","properties":{"utm_y":"4619846.7170","nom_comarca":"Moianès","longitud":"2.153080364","latitud":"41.72730742","utm_x":"429561.1718","nom":"Sant Quirze Safaja","codi":"082397","codi_comarca":"42"},"geometry":{"type":"Point","coordinates":[2.153080364,41.72730742]}},{"type":"Feature","properties":{"utm_y":"4632021.6900","nom_comarca":"Noguera","longitud":"0.638489583","latitud":"41.81580709","utm_x":"303856.0692","nom":"Algerri","codi":"250156","codi_comarca":"23"},"geometry":{"type":"Point","coordinates":[0.638489583,41.81580709]}},{"type":"Feature","properties":{"utm_y":"4667496.3140","nom_comarca":"Alt Empordà","longitud":"2.910176340","latitud":"42.15956157","utm_x":"492579.6310","nom":"Bàscara","codi":"170160","codi_comarca":"02"},"geometry":{"type":"Point","coordinates":[2.91017634,42.15956157]}},{"type":"Feature","properties":{"utm_y":"4617968.3940","nom_comarca":"Segrià","longitud":"0.728766743","latitud":"41.69106110","utm_x":"310988.9933","nom":"Vilanova de la Barca","codi":"252542","codi_comarca":"33"},"geometry":{"type":"Point","coordinates":[0.728766743,41.6910611]}},{"type":"Feature","properties":{"utm_y":"4572354.1090","nom_comarca":"Alt Camp","longitud":"1.096974798","latitud":"41.28690992","utm_x":"340644.8525","nom":"Mont-ral","codi":"430918","codi_comarca":"01"},"geometry":{"type":"Point","coordinates":[1.096974798,41.28690992]}},{"type":"Feature","properties":{"utm_y":"4588108.2030","nom_comarca":"Garrigues","longitud":"0.859217612","latitud":"41.42462762","utm_x":"321112.0961","nom":"Cervià de les Garrigues","codi":"250735","codi_comarca":"18"},"geometry":{"type":"Point","coordinates":[0.859217612,41.42462762]}},{"type":"Feature","properties":{"utm_y":"4520723.4810","nom_comarca":"Baix Ebre","longitud":"0.520955976","latitud":"40.81090500","utm_x":"290904.2497","nom":"Tortosa","codi":"431554","codi_comarca":"09"},"geometry":{"type":"Point","coordinates":[0.520955976,40.810905]}},{"type":"Feature","properties":{"utm_y":"4697520.2660","nom_comarca":"Alta Ribagorça","longitud":"0.740819954","latitud":"42.40773167","utm_x":"314094.7952","nom":"Pont de Suert, el","codi":"251734","codi_comarca":"05"},"geometry":{"type":"Point","coordinates":[0.740819954,42.40773167]}},{"type":"Feature","properties":{"utm_y":"4560328.3050","nom_comarca":"Tarragonès","longitud":"1.373803061","latitud":"41.18283352","utm_x":"363610.5046","nom":"Nou de Gaià, la","codi":"430976","codi_comarca":"36"},"geometry":{"type":"Point","coordinates":[1.373803061,41.18283352]}},{"type":"Feature","properties":{"utm_y":"4570296.4380","nom_comarca":"Priorat","longitud":"0.904950072","latitud":"41.26504071","utm_x":"324505.6333","nom":"Cornudella de Montsant","codi":"430496","codi_comarca":"29"},"geometry":{"type":"Point","coordinates":[0.904950072,41.26504071]}},{"type":"Feature","properties":{"utm_y":"4665133.4500","nom_comarca":"Berguedà","longitud":"1.708727309","latitud":"42.13104932","utm_x":"393278.6477","nom":"Castellar del Riu","codi":"080500","codi_comarca":"14"},"geometry":{"type":"Point","coordinates":[1.708727309,42.13104932]}},{"type":"Feature","properties":{"utm_y":"4694589.7650","nom_comarca":"Cerdanya","longitud":"1.837272363","latitud":"42.39770976","utm_x":"404306.9910","nom":"Isòvol","codi":"170849","codi_comarca":"15"},"geometry":{"type":"Point","coordinates":[1.837272363,42.39770976]}},{"type":"Feature","properties":{"utm_y":"4532396.7980","nom_comarca":"Terra Alta","longitud":"0.260519691","latitud":"40.91015257","utm_x":"269280.2601","nom":"Arnes","codi":"430189","codi_comarca":"37"},"geometry":{"type":"Point","coordinates":[0.260519691,40.91015257]}},{"type":"Feature","properties":{"utm_y":"4555194.3670","nom_comarca":"Baix Camp","longitud":"0.960954190","latitud":"41.13001980","utm_x":"328845.6210","nom":"Riudecanyes","codi":"431270","codi_comarca":"08"},"geometry":{"type":"Point","coordinates":[0.96095419,41.1300198]}},{"type":"Feature","properties":{"utm_y":"4543233.8790","nom_comarca":"Baix Camp","longitud":"0.831528354","latitud":"41.01992442","utm_x":"317677.0300","nom":"Vandellòs i l'Hospitalet de l'Infant","codi":"431628","codi_comarca":"08"},"geometry":{"type":"Point","coordinates":[0.831528354,41.01992442]}},{"type":"Feature","properties":{"utm_y":"4597776.2790","nom_comarca":"Vallès Occidental","longitud":"1.956888262","latitud":"41.52690369","utm_x":"412974.4545","nom":"Ullastrell","codi":"082900","codi_comarca":"40"},"geometry":{"type":"Point","coordinates":[1.956888262,41.52690369]}},{"type":"Feature","properties":{"utm_y":"4567863.6570","nom_comarca":"Alt Camp","longitud":"1.206824514","latitud":"41.24822743","utm_x":"349755.1511","nom":"Milà, el","codi":"430831","codi_comarca":"01"},"geometry":{"type":"Point","coordinates":[1.206824514,41.24822743]}},{"type":"Feature","properties":{"utm_y":"4644740.4380","nom_comarca":"Baix Empordà","longitud":"3.207322640","latitud":"41.95445697","utm_x":"517182.2096","nom":"Begur","codi":"170139","codi_comarca":"10"},"geometry":{"type":"Point","coordinates":[3.20732264,41.95445697]}},{"type":"Feature","properties":{"utm_y":"4647920.8280","nom_comarca":"Gironès","longitud":"2.824865628","latitud":"41.98315544","utm_x":"485491.9609","nom":"Girona","codi":"170792","codi_comarca":"20"},"geometry":{"type":"Point","coordinates":[2.824865628,41.98315544]}},{"type":"Feature","properties":{"utm_y":"4576661.9640","nom_comarca":"Baix Llobregat","longitud":"1.996420408","latitud":"41.33707070","utm_x":"416028.3133","nom":"Sant Climent de Llobregat","codi":"082042","codi_comarca":"11"},"geometry":{"type":"Point","coordinates":[1.996420408,41.3370707]}},{"type":"Feature","properties":{"utm_y":"4618110.1010","nom_comarca":"Anoia","longitud":"1.542081512","latitud":"41.70553776","utm_x":"378702.0799","nom":"Prats de Rei, els","codi":"081705","codi_comarca":"06"},"geometry":{"type":"Point","coordinates":[1.542081512,41.70553776]}},{"type":"Feature","properties":{"utm_y":"4584916.7810","nom_comarca":"Baix Llobregat","longitud":"1.971237761","latitud":"41.41120333","utm_x":"414018.8830","nom":"Palma de Cervelló, la","codi":"089058","codi_comarca":"11"},"geometry":{"type":"Point","coordinates":[1.971237761,41.41120333]}},{"type":"Feature","properties":{"utm_y":"4562722.9030","nom_comarca":"Ribera d'Ebre","longitud":"0.624788569","latitud":"41.19138540","utm_x":"300812.3469","nom":"Torre de l'Espanyol, la","codi":"431520","codi_comarca":"30"},"geometry":{"type":"Point","coordinates":[0.624788569,41.1913854]}},{"type":"Feature","properties":{"utm_y":"4626447.3990","nom_comarca":"Selva","longitud":"2.780328583","latitud":"41.78967114","utm_x":"481747.5444","nom":"Vidreres","codi":"172137","codi_comarca":"34"},"geometry":{"type":"Point","coordinates":[2.780328583,41.78967114]}},{"type":"Feature","properties":{"utm_y":"4574941.6540","nom_comarca":"Baix Penedès","longitud":"1.453796685","latitud":"41.31556393","utm_x":"370582.0695","nom":"Montmell, el","codi":"430901","codi_comarca":"12"},"geometry":{"type":"Point","coordinates":[1.453796685,41.31556393]}},{"type":"Feature","properties":{"utm_y":"4637616.3610","nom_comarca":"Noguera","longitud":"1.174256928","latitud":"41.87596418","utm_x":"348500.1812","nom":"Oliola","codi":"251500","codi_comarca":"23"},"geometry":{"type":"Point","coordinates":[1.174256928,41.87596418]}},{"type":"Feature","properties":{"utm_y":"4636033.8160","nom_comarca":"Moianès","longitud":"2.035571761","latitud":"41.87217579","utm_x":"419968.2798","nom":"Santa Maria d'Oló","codi":"082589","codi_comarca":"42"},"geometry":{"type":"Point","coordinates":[2.035571761,41.87217579]}},{"type":"Feature","properties":{"utm_y":"4612766.1710","nom_comarca":"Segarra","longitud":"1.418867212","latitud":"41.65577667","utm_x":"368349.0233","nom":"Sant Guim de Freixenet","codi":"251924","codi_comarca":"32"},"geometry":{"type":"Point","coordinates":[1.418867212,41.65577667]}},{"type":"Feature","properties":{"utm_y":"4685289.8450","nom_comarca":"Ripollès","longitud":"2.103610131","latitud":"42.31634679","utm_x":"426131.6634","nom":"Planoles","codi":"171349","codi_comarca":"31"},"geometry":{"type":"Point","coordinates":[2.103610131,42.31634679]}},{"type":"Feature","properties":{"utm_y":"4602045.2840","nom_comarca":"Anoia","longitud":"1.523004887","latitud":"41.56060010","utm_x":"376839.2234","nom":"Sant Martí de Tous","codi":"082264","codi_comarca":"06"},"geometry":{"type":"Point","coordinates":[1.523004887,41.5606001]}},{"type":"Feature","properties":{"utm_y":"4569496.1440","nom_comarca":"Alt Camp","longitud":"1.365731905","latitud":"41.26529763","utm_x":"363105.6871","nom":"Montferri","codi":"430897","codi_comarca":"01"},"geometry":{"type":"Point","coordinates":[1.365731905,41.26529763]}},{"type":"Feature","properties":{"utm_y":"4616178.6060","nom_comarca":"Segrià","longitud":"0.631037175","latitud":"41.67296782","utm_x":"302800.1839","nom":"Torre-serona","codi":"252332","codi_comarca":"33"},"geometry":{"type":"Point","coordinates":[0.631037175,41.67296782]}},{"type":"Feature","properties":{"utm_y":"4665546.5590","nom_comarca":"Pallars Jussà","longitud":"0.920462441","latitud":"42.12318799","utm_x":"328106.3616","nom":"Gavet de la Conca","codi":"250984","codi_comarca":"25"},"geometry":{"type":"Point","coordinates":[0.920462441,42.12318799]}},{"type":"Feature","properties":{"utm_y":"4619132.6410","nom_comarca":"Vallès Oriental","longitud":"2.273365617","latitud":"41.72169934","utm_x":"439560.1821","nom":"Figaró-Montmany","codi":"081347","codi_comarca":"41"},"geometry":{"type":"Point","coordinates":[2.273365617,41.72169934]}},{"type":"Feature","properties":{"utm_y":"4627609.9950","nom_comarca":"Osona","longitud":"2.219100119","latitud":"41.79769849","utm_x":"435123.0651","nom":"Centelles","codi":"080673","codi_comarca":"24"},"geometry":{"type":"Point","coordinates":[2.219100119,41.79769849]}},{"type":"Feature","properties":{"utm_y":"4604309.1940","nom_comarca":"Vallès Occidental","longitud":"2.178421008","latitud":"41.58754343","utm_x":"431520.8829","nom":"Palau-solità i Plegamans","codi":"081568","codi_comarca":"40"},"geometry":{"type":"Point","coordinates":[2.178421008,41.58754343]}},{"type":"Feature","properties":{"utm_y":"4589254.6330","nom_comarca":"Barcelonès","longitud":"2.207934468","latitud":"41.45214935","utm_x":"433843.1131","nom":"Santa Coloma de Gramenet","codi":"082457","codi_comarca":"13"},"geometry":{"type":"Point","coordinates":[2.207934468,41.45214935]}},{"type":"Feature","properties":{"utm_y":"4575100.2400","nom_comarca":"Baix Camp","longitud":"0.988191149","latitud":"41.30979410","utm_x":"331593.9731","nom":"Prades","codi":"431166","codi_comarca":"08"},"geometry":{"type":"Point","coordinates":[0.988191149,41.3097941]}},{"type":"Feature","properties":{"utm_y":"4675222.9620","nom_comarca":"Berguedà","longitud":"1.892917871","latitud":"42.22384293","utm_x":"408635.5599","nom":"Sant Julià de Cerdanyola","codi":"089030","codi_comarca":"14"},"geometry":{"type":"Point","coordinates":[1.892917871,42.22384293]}},{"type":"Feature","properties":{"utm_y":"4567172.8680","nom_comarca":"Alt Camp","longitud":"1.248902308","latitud":"41.24265311","utm_x":"353268.3980","nom":"Vallmoll","codi":"431606","codi_comarca":"01"},"geometry":{"type":"Point","coordinates":[1.248902308,41.24265311]}},{"type":"Feature","properties":{"utm_y":"4556594.3380","nom_comarca":"Ribera d'Ebre","longitud":"0.648705737","latitud":"41.13667673","utm_x":"302654.0533","nom":"Garcia","codi":"430653","codi_comarca":"30"},"geometry":{"type":"Point","coordinates":[0.648705737,41.13667673]}},{"type":"Feature","properties":{"utm_y":"4549446.8770","nom_comarca":"Tarragonès","longitud":"1.133565772","latitud":"41.08117674","utm_x":"343218.9305","nom":"Salou","codi":"439057","codi_comarca":"36"},"geometry":{"type":"Point","coordinates":[1.133565772,41.08117674]}},{"type":"Feature","properties":{"utm_y":"0.0000","nom_comarca":"Altres/Diversos","longitud":"0E-9","latitud":"0E-8","utm_x":"0.0000","nom":"Altres/Diversos","codi":"999999","codi_comarca":"99"},"geometry":{"type":"Point","coordinates":[0.0,0.0]}},{"type":"Feature","properties":{"utm_y":"4626871.8300","nom_comarca":"Moianès","longitud":"1.991322594","latitud":"41.78927569","utm_x":"416188.2046","nom":"Calders","codi":"080348","codi_comarca":"42"},"geometry":{"type":"Point","coordinates":[1.991322594,41.78927569]}},{"type":"Feature","properties":{"utm_y":"4685760.9880","nom_comarca":"Alt Urgell","longitud":"1.382781138","latitud":"42.31268837","utm_x":"366721.7905","nom":"Ribera d'Urgellet","codi":"251850","codi_comarca":"04"},"geometry":{"type":"Point","coordinates":[1.382781138,42.31268837]}},{"type":"Feature","properties":{"utm_y":"4605460.2430","nom_comarca":"Maresme","longitud":"2.621160222","latitud":"41.60022259","utm_x":"468429.7520","nom":"Sant Pol de Mar","codi":"082359","codi_comarca":"21"},"geometry":{"type":"Point","coordinates":[2.621160222,41.60022259]}},{"type":"Feature","properties":{"utm_y":"4674469.4290","nom_comarca":"Garrotxa","longitud":"2.742740958","latitud":"42.22211068","utm_x":"478768.6626","nom":"Maià de Montcal","codi":"170985","codi_comarca":"19"},"geometry":{"type":"Point","coordinates":[2.742740958,42.22211068]}},{"type":"Feature","properties":{"utm_y":"4596783.1780","nom_comarca":"Segrià","longitud":"0.458983454","latitud":"41.49461039","utm_x":"287893.5222","nom":"Aitona","codi":"250387","codi_comarca":"33"},"geometry":{"type":"Point","coordinates":[0.458983454,41.49461039]}},{"type":"Feature","properties":{"utm_y":"4640971.0460","nom_comarca":"Bages","longitud":"1.680327797","latitud":"41.91311035","utm_x":"390558.2718","nom":"Cardona","codi":"080478","codi_comarca":"07"},"geometry":{"type":"Point","coordinates":[1.680327797,41.91311035]}},{"type":"Feature","properties":{"utm_y":"4606585.5440","nom_comarca":"Vallès Oriental","longitud":"2.239433257","latitud":"41.60846679","utm_x":"436626.8023","nom":"Lliçà d'Amunt","codi":"081075","codi_comarca":"41"},"geometry":{"type":"Point","coordinates":[2.239433257,41.60846679]}},{"type":"Feature","properties":{"utm_y":"4613694.2690","nom_comarca":"Urgell","longitud":"1.081418917","latitud":"41.65899697","utm_x":"340258.6552","nom":"Anglesola","codi":"250273","codi_comarca":"38"},"geometry":{"type":"Point","coordinates":[1.081418917,41.65899697]}},{"type":"Feature","properties":{"utm_y":"4579052.6910","nom_comarca":"Barcelonès","longitud":"2.099712098","latitud":"41.35945967","utm_x":"424696.8549","nom":"Hospitalet de Llobregat, l'","codi":"081017","codi_comarca":"13"},"geometry":{"type":"Point","coordinates":[2.099712098,41.35945967]}},{"type":"Feature","properties":{"utm_y":"4674916.5960","nom_comarca":"Ripollès","longitud":"2.168005107","latitud":"42.22340907","utm_x":"431337.4655","nom":"Campdevànol","codi":"170366","codi_comarca":"31"},"geometry":{"type":"Point","coordinates":[2.168005107,42.22340907]}},{"type":"Feature","properties":{"utm_y":"4602156.9200","nom_comarca":"Garrigues","longitud":"0.889455565","latitud":"41.55171932","utm_x":"323983.4786","nom":"Puiggròs","codi":"251804","codi_comarca":"18"},"geometry":{"type":"Point","coordinates":[0.889455565,41.55171932]}},{"type":"Feature","properties":{"utm_y":"4629662.6280","nom_comarca":"Osona","longitud":"2.305489017","latitud":"41.81674111","utm_x":"442317.3569","nom":"Brull, el","codi":"080266","codi_comarca":"24"},"geometry":{"type":"Point","coordinates":[2.305489017,41.81674111]}},{"type":"Feature","properties":{"utm_y":"4671915.7000","nom_comarca":"Ripollès","longitud":"2.304150212","latitud":"42.19728894","utm_x":"442549.5873","nom":"Vallfogona de Ripollès","codi":"171707","codi_comarca":"31"},"geometry":{"type":"Point","coordinates":[2.304150212,42.19728894]}},{"type":"Feature","properties":{"utm_y":"4557689.9670","nom_comarca":"Baix Camp","longitud":"1.108491969","latitud":"41.15501639","utm_x":"341290.6532","nom":"Reus","codi":"431233","codi_comarca":"08"},"geometry":{"type":"Point","coordinates":[1.108491969,41.15501639]}},{"type":"Feature","properties":{"utm_y":"4610812.2850","nom_comarca":"Pla d'Urgell","longitud":"0.832211886","latitud":"41.62860880","utm_x":"319423.6703","nom":"Sidamon","codi":"252056","codi_comarca":"27"},"geometry":{"type":"Point","coordinates":[0.832211886,41.6286088]}},{"type":"Feature","properties":{"utm_y":"4569899.5170","nom_comarca":"Baix Penedès","longitud":"1.415351919","latitud":"41.26962478","utm_x":"367271.0107","nom":"Masllorenç","codi":"430799","codi_comarca":"12"},"geometry":{"type":"Point","coordinates":[1.415351919,41.26962478]}},{"type":"Feature","properties":{"utm_y":"4656682.5580","nom_comarca":"Berguedà","longitud":"1.906973539","latitud":"42.05699767","utm_x":"409558.4015","nom":"Olvan","codi":"081445","codi_comarca":"14"},"geometry":{"type":"Point","coordinates":[1.906973539,42.05699767]}},{"type":"Feature","properties":{"utm_y":"4689346.0090","nom_comarca":"Cerdanya","longitud":"1.852098708","latitud":"42.35063439","utm_x":"405456.6305","nom":"Urús","codi":"172060","codi_comarca":"15"},"geometry":{"type":"Point","coordinates":[1.852098708,42.35063439]}},{"type":"Feature","properties":{"utm_y":"4615683.5550","nom_comarca":"Pla d'Urgell","longitud":"0.817527266","latitud":"41.67220364","utm_x":"318322.9680","nom":"Bellvís","codi":"250523","codi_comarca":"27"},"geometry":{"type":"Point","coordinates":[0.817527266,41.67220364]}},{"type":"Feature","properties":{"utm_y":"4546096.5780","nom_comarca":"Ribera d'Ebre","longitud":"0.633663591","latitud":"41.04181481","utm_x":"301105.4134","nom":"Ginestar","codi":"430672","codi_comarca":"30"},"geometry":{"type":"Point","coordinates":[0.633663591,41.04181481]}},{"type":"Feature","properties":{"utm_y":"4551776.7710","nom_comarca":"Ribera d'Ebre","longitud":"0.641767088","latitud":"41.09314292","utm_x":"301940.7545","nom":"Móra d'Ebre","codi":"430939","codi_comarca":"30"},"geometry":{"type":"Point","coordinates":[0.641767088,41.09314292]}},{"type":"Feature","properties":{"utm_y":"4562724.7500","nom_comarca":"Garraf","longitud":"1.672526156","latitud":"41.20825098","utm_x":"388708.2160","nom":"Cubelles","codi":"080749","codi_comarca":"17"},"geometry":{"type":"Point","coordinates":[1.672526156,41.20825098]}},{"type":"Feature","properties":{"utm_y":"4608207.0910","nom_comarca":"Urgell","longitud":"1.142859787","latitud":"41.61058522","utm_x":"345258.6545","nom":"Verdú","codi":"252424","codi_comarca":"38"},"geometry":{"type":"Point","coordinates":[1.142859787,41.61058522]}},{"type":"Feature","properties":{"utm_y":"4679545.7280","nom_comarca":"Ripollès","longitud":"2.277413077","latitud":"42.26584144","utm_x":"440406.6417","nom":"Ogassa","codi":"171122","codi_comarca":"31"},"geometry":{"type":"Point","coordinates":[2.277413077,42.26584144]}},{"type":"Feature","properties":{"utm_y":"4613606.6660","nom_comarca":"Selva","longitud":"2.791605671","latitud":"41.67403461","utm_x":"482653.4733","nom":"Blanes","codi":"170237","codi_comarca":"34"},"geometry":{"type":"Point","coordinates":[2.791605671,41.67403461]}},{"type":"Feature","properties":{"utm_y":"4666618.9690","nom_comarca":"Berguedà","longitud":"1.861924391","latitud":"42.14605031","utm_x":"405962.4906","nom":"Cercs","codi":"082687","codi_comarca":"14"},"geometry":{"type":"Point","coordinates":[1.861924391,42.14605031]}},{"type":"Feature","properties":{"utm_y":"4588586.5820","nom_comarca":"Segrià","longitud":"0.352158006","latitud":"41.41837797","utm_x":"278716.5462","nom":"Granja d'Escarp, la","codi":"251023","codi_comarca":"33"},"geometry":{"type":"Point","coordinates":[0.352158006,41.41837797]}},{"type":"Feature","properties":{"utm_y":"4665714.2740","nom_comarca":"Alt Empordà","longitud":"2.953885017","latitud":"42.14353764","utm_x":"496189.4617","nom":"Vilaür","codi":"172229","codi_comarca":"02"},"geometry":{"type":"Point","coordinates":[2.953885017,42.14353764]}},{"type":"Feature","properties":{"utm_y":"4579548.8950","nom_comarca":"Alt Penedès","longitud":"1.779376543","latitud":"41.36097714","utm_x":"397904.8169","nom":"Avinyonet del Penedès","codi":"080137","codi_comarca":"03"},"geometry":{"type":"Point","coordinates":[1.779376543,41.36097714]}},{"type":"Feature","properties":{"utm_y":"4581712.0690","nom_comarca":"Garrigues","longitud":"0.915289225","latitud":"41.36804868","utm_x":"325646.6056","nom":"Pobla de Cérvoles, la","codi":"251692","codi_comarca":"18"},"geometry":{"type":"Point","coordinates":[0.915289225,41.36804868]}},{"type":"Feature","properties":{"utm_y":"4596706.6200","nom_comarca":"Vallès Oriental","longitud":"2.253349207","latitud":"41.51957597","utm_x":"437701.0091","nom":"Santa Maria de Martorelles","codi":"082567","codi_comarca":"41"},"geometry":{"type":"Point","coordinates":[2.253349207,41.51957597]}},{"type":"Feature","properties":{"utm_y":"4669546.9210","nom_comarca":"Berguedà","longitud":"1.945196781","latitud":"42.17321606","utm_x":"412880.5231","nom":"Castell de l'Areny","codi":"080575","codi_comarca":"14"},"geometry":{"type":"Point","coordinates":[1.945196781,42.17321606]}},{"type":"Feature","properties":{"utm_y":"4561396.2030","nom_comarca":"Tarragonès","longitud":"1.255500189","latitud":"41.19072089","utm_x":"353705.5799","nom":"Perafort","codi":"431037","codi_comarca":"36"},"geometry":{"type":"Point","coordinates":[1.255500189,41.19072089]}},{"type":"Feature","properties":{"utm_y":"4661032.0810","nom_comarca":"Pallars Jussà","longitud":"0.763893912","latitud":"42.07958580","utm_x":"315037.0836","nom":"Sant Esteve de la Sarga","codi":"251961","codi_comarca":"25"},"geometry":{"type":"Point","coordinates":[0.763893912,42.0795858]}},{"type":"Feature","properties":{"utm_y":"4677162.1170","nom_comarca":"Alt Empordà","longitud":"2.937795096","latitud":"42.24663345","utm_x":"494868.2787","nom":"Vilafant","codi":"172214","codi_comarca":"02"},"geometry":{"type":"Point","coordinates":[2.937795096,42.24663345]}},{"type":"Feature","properties":{"utm_y":"4608105.4370","nom_comarca":"Maresme","longitud":"2.569300136","latitud":"41.62386593","utm_x":"464121.1364","nom":"Sant Iscle de Vallalta","codi":"081939","codi_comarca":"21"},"geometry":{"type":"Point","coordinates":[2.569300136,41.62386593]}},{"type":"Feature","properties":{"utm_y":"4616923.8250","nom_comarca":"Bages","longitud":"1.976188317","latitud":"41.69954107","utm_x":"414812.1270","nom":"Mura","codi":"081398","codi_comarca":"07"},"geometry":{"type":"Point","coordinates":[1.976188317,41.69954107]}},{"type":"Feature","properties":{"utm_y":"4652502.8900","nom_comarca":"Osona","longitud":"2.464658159","latitud":"42.02330972","utm_x":"455680.3782","nom":"Rupit i Pruit","codi":"089019","codi_comarca":"24"},"geometry":{"type":"Point","coordinates":[2.464658159,42.02330972]}},{"type":"Feature","properties":{"utm_y":"4587855.7610","nom_comarca":"Baix Llobregat","longitud":"2.010961168","latitud":"41.43802425","utm_x":"417372.9103","nom":"Papiol, el","codi":"081580","codi_comarca":"11"},"geometry":{"type":"Point","coordinates":[2.010961168,41.43802425]}},